"id","name","zipcode","latitude","longitude","state_id/id"
"fr_city_00001","L ABERGEMENT CLEMENCIAT","1400","46.1534255214","4.92611354223","cap_contact.fr_departement_1"
"fr_city_00002","L ABERGEMENT DE VAREY","1640","46.0091878776","5.42801696363","cap_contact.fr_departement_1"
"fr_city_00003","AMBERIEU EN BUGEY","1500","45.9608475114","5.3729257777","cap_contact.fr_departement_1"
"fr_city_00004","AMBERIEUX EN DOMBES","1330","45.9961799872","4.91227250796","cap_contact.fr_departement_1"
"fr_city_00005","AMBLEON","1300","45.7494989044","5.59432017366","cap_contact.fr_departement_1"
"fr_city_00006","AMBRONAY","1500","46.0055913782","5.35760660735","cap_contact.fr_departement_1"
"fr_city_00007","AMBUTRIX","1500","45.9367134524","5.3328092349","cap_contact.fr_departement_1"
"fr_city_00008","ANDERT ET CONDON","1300","45.7873565333","5.65788307924","cap_contact.fr_departement_1"
"fr_city_00009","ANGLEFORT","1350","45.9093715116","5.79516005674","cap_contact.fr_departement_1"
"fr_city_00010","APREMONT","1100","46.2054981558","5.65781475272","cap_contact.fr_departement_1"
"fr_city_00011","ARANC","1110","46.0015344029","5.51130637511","cap_contact.fr_departement_1"
"fr_city_00012","ARANDAS","1230","45.8908155275","5.49870439091","cap_contact.fr_departement_1"
"fr_city_00013","ARBENT","1100","46.2834936005","5.69061651221","cap_contact.fr_departement_1"
"fr_city_00014","ARBOYS EN BUGEY","1300","45.7237621545","5.65263086429","cap_contact.fr_departement_1"
"fr_city_00015","ARBIGNY","1190","46.4776762988","4.9599416863","cap_contact.fr_departement_1"
"fr_city_00016","ARGIS","1230","45.9337182132","5.48251100314","cap_contact.fr_departement_1"
"fr_city_00017","ARMIX","1510","45.8541838459","5.58357838695","cap_contact.fr_departement_1"
"fr_city_00018","ARS SUR FORMANS","1480","45.9934611","4.82199649494","cap_contact.fr_departement_1"
"fr_city_00019","ARTEMARE","1510","45.8695891748","5.69065283943","cap_contact.fr_departement_1"
"fr_city_00020","ASNIERES SUR SAONE","1570","46.3857281418","4.88387478623","cap_contact.fr_departement_1"
"fr_city_00021","ATTIGNAT","1340","46.2861802203","5.1795233845","cap_contact.fr_departement_1"
"fr_city_00022","BAGE LA VILLE","1380","46.3233203302","4.9528678933","cap_contact.fr_departement_1"
"fr_city_00023","BAGE LE CHATEL","1380","46.3077069231","4.92862084189","cap_contact.fr_departement_1"
"fr_city_00024","BALAN","1360","45.8311226453","5.10780019249","cap_contact.fr_departement_1"
"fr_city_00025","BANEINS","1990","46.1141214445","4.90146475101","cap_contact.fr_departement_1"
"fr_city_00026","BEAUPONT","1270","46.4288360203","5.26003405676","cap_contact.fr_departement_1"
"fr_city_00027","BEAUREGARD","1480","46.0008580204","4.75600664694","cap_contact.fr_departement_1"
"fr_city_00028","BELLIGNAT","1100","46.2373497134","5.6360052884","cap_contact.fr_departement_1"
"fr_city_00029","BELIGNEUX","1360","45.8591464826","5.13989505865","cap_contact.fr_departement_1"
"fr_city_00030","BELLEGARDE SUR VALSERINE","1200","46.1067901755","5.83202736464","cap_contact.fr_departement_1"
"fr_city_00031","BELLEY","1300","45.7494697806","5.68412365526","cap_contact.fr_departement_1"
"fr_city_00032","BELLEYDOUX","1130","46.2530316409","5.78471723698","cap_contact.fr_departement_1"
"fr_city_00033","BELMONT LUTHEZIEU","1260","45.8847475883","5.65115788055","cap_contact.fr_departement_1"
"fr_city_00034","BENONCES","1470","45.8374974718","5.48285330863","cap_contact.fr_departement_1"
"fr_city_00035","BENY","1370","46.3188629218","5.28253433405","cap_contact.fr_departement_1"
"fr_city_00036","BEON","1350","45.8568920052","5.75220315052","cap_contact.fr_departement_1"
"fr_city_00037","BEREZIAT","1340","46.3674371012","5.04021655965","cap_contact.fr_departement_1"
"fr_city_00038","BETTANT","1500","45.9368718303","5.36667617009","cap_contact.fr_departement_1"
"fr_city_00039","BEY","1290","46.2191748844","4.84642690241","cap_contact.fr_departement_1"
"fr_city_00040","BEYNOST","1700","45.8390325448","4.99738002182","cap_contact.fr_departement_1"
"fr_city_00041","BILLIAT","1200","46.0791346715","5.76591818163","cap_contact.fr_departement_1"
"fr_city_00042","BIRIEUX","1330","45.9533995502","5.03666479984","cap_contact.fr_departement_1"
"fr_city_00043","BIZIAT","1290","46.2266794269","4.94084673168","cap_contact.fr_departement_1"
"fr_city_00044","BLYES","1150","45.8469686113","5.25166055884","cap_contact.fr_departement_1"
"fr_city_00045","LA BOISSE","1120","45.8446213549","5.02783224111","cap_contact.fr_departement_1"
"fr_city_00046","BOISSEY","1190","46.3727973545","4.9989764059","cap_contact.fr_departement_1"
"fr_city_00047","BOISSEY","1380","46.3727973545","4.9989764059","cap_contact.fr_departement_1"
"fr_city_00048","BOLOZON","1450","46.1960338503","5.47095075411","cap_contact.fr_departement_1"
"fr_city_00049","BOULIGNEUX","1330","46.0232774841","4.99252709276","cap_contact.fr_departement_1"
"fr_city_00050","BOURG EN BRESSE","1000","46.2051520382","5.24602125501","cap_contact.fr_departement_1"
"fr_city_00051","BOURG ST CHRISTOPHE","1800","45.8861934456","5.14349196896","cap_contact.fr_departement_1"
"fr_city_00052","BOYEUX ST JEROME","1640","46.0363677631","5.46322744717","cap_contact.fr_departement_1"
"fr_city_00053","BOZ","1190","46.4051688134","4.9135797178","cap_contact.fr_departement_1"
"fr_city_00054","BREGNIER CORDON","1300","45.6416854652","5.61653371","cap_contact.fr_departement_1"
"fr_city_00055","BRENAZ","1260","45.9500082947","5.7371892334","cap_contact.fr_departement_1"
"fr_city_00056","BRENOD","1110","46.0759940484","5.61418361314","cap_contact.fr_departement_1"
"fr_city_00057","BRENS","1300","45.7135069062","5.68998154517","cap_contact.fr_departement_1"
"fr_city_00058","BRESSOLLES","1360","45.869423064","5.1009428902","cap_contact.fr_departement_1"
"fr_city_00059","BRION","1460","46.1686327301","5.54656422194","cap_contact.fr_departement_1"
"fr_city_00060","BRIORD","1470","45.7708330939","5.48537461884","cap_contact.fr_departement_1"
"fr_city_00061","BUELLAS","1310","46.2104135162","5.14487465017","cap_contact.fr_departement_1"
"fr_city_00062","LA BURBANCHE","1510","45.8598709332","5.54609714598","cap_contact.fr_departement_1"
"fr_city_00063","CEIGNES","1430","46.1256533435","5.49457379202","cap_contact.fr_departement_1"
"fr_city_00064","CERDON","1450","46.0720202633","5.47577586118","cap_contact.fr_departement_1"
"fr_city_00065","CERTINES","1240","46.1337950959","5.26239539372","cap_contact.fr_departement_1"
"fr_city_00066","CESSY","1170","46.315689376","6.0779844362","cap_contact.fr_departement_1"
"fr_city_00067","CEYZERIAT","1250","46.1832170988","5.32007207542","cap_contact.fr_departement_1"
"fr_city_00068","CEYZERIEU","1350","45.8335530148","5.71933090966","cap_contact.fr_departement_1"
"fr_city_00069","CHALAMONT","1320","46.0076491739","5.16936568","cap_contact.fr_departement_1"
"fr_city_00070","CHALEINS","1480","46.0340545373","4.79853838574","cap_contact.fr_departement_1"
"fr_city_00071","CHALEY","1230","45.9533367734","5.53682505273","cap_contact.fr_departement_1"
"fr_city_00072","CHALLES LA MONTAGNE","1450","46.1221539654","5.45755377201","cap_contact.fr_departement_1"
"fr_city_00073","CHALLEX","1630","46.1768358327","5.97115092939","cap_contact.fr_departement_1"
"fr_city_00074","CHAMPAGNE EN VALROMEY","1260","45.9316447397","5.69321890072","cap_contact.fr_departement_1"
"fr_city_00075","CHAMPDOR CORCELLES","1110","46.0198844188","5.60008759722","cap_contact.fr_departement_1"
"fr_city_00076","CHAMPFROMIER","1410","46.220365768","5.82233573131","cap_contact.fr_departement_1"
"fr_city_00077","CHANAY","1420","46.005695299","5.76893393185","cap_contact.fr_departement_1"
"fr_city_00078","CHANEINS","1990","46.0934984191","4.85473364691","cap_contact.fr_departement_1"
"fr_city_00079","CHANOZ CHATENAY","1400","46.1861812234","5.02807719246","cap_contact.fr_departement_1"
"fr_city_00080","LA CHAPELLE DU CHATELARD","1240","46.0744536905","5.02162055898","cap_contact.fr_departement_1"
"fr_city_00081","CHARIX","1130","46.1856344066","5.6811896084","cap_contact.fr_departement_1"
"fr_city_00082","CHARNOZ SUR AIN","1800","45.8736786869","5.2211032563","cap_contact.fr_departement_1"
"fr_city_00083","CHATEAU GAILLARD","1500","45.9730390239","5.30754273532","cap_contact.fr_departement_1"
"fr_city_00084","CHATENAY","1320","46.0259402155","5.2048590395","cap_contact.fr_departement_1"
"fr_city_00085","CHATILLON EN MICHAILLE","1200","46.1293337743","5.770176021","cap_contact.fr_departement_1"
"fr_city_00086","CHATILLON LA PALUD","1320","45.9748017433","5.2416027725","cap_contact.fr_departement_1"
"fr_city_00087","CHATILLON SUR CHALARONNE","1400","46.1232390685","4.95810003714","cap_contact.fr_departement_1"
"fr_city_00088","CHAVANNES SUR REYSSOUZE","1190","46.4379785193","5.00693749662","cap_contact.fr_departement_1"
"fr_city_00089","CHAVANNES SUR SURAN","1250","46.2750157946","5.41649423093","cap_contact.fr_departement_1"
"fr_city_00090","CHAVEYRIAT","1660","46.1991513767","5.0564069258","cap_contact.fr_departement_1"
"fr_city_00091","CHAVORNAY","1510","45.8824049535","5.72499814516","cap_contact.fr_departement_1"
"fr_city_00092","CHAZEY BONS","1300","45.7925770617","5.68477063188","cap_contact.fr_departement_1"
"fr_city_00093","CHAZEY SUR AIN","1150","45.8929448968","5.25528498524","cap_contact.fr_departement_1"
"fr_city_00094","CHEIGNIEU LA BALME","1510","45.8227204334","5.6050023969","cap_contact.fr_departement_1"
"fr_city_00095","CHEVILLARD","1430","46.1103512578","5.58116056005","cap_contact.fr_departement_1"
"fr_city_00096","CHEVROUX","1190","46.38249255","4.96288275972","cap_contact.fr_departement_1"
"fr_city_00097","CHEVRY","1170","46.283152935","6.04707941462","cap_contact.fr_departement_1"
"fr_city_00098","CHEZERY FORENS","1200","46.222573373","5.87248105275","cap_contact.fr_departement_1"
"fr_city_00099","CHEZERY FORENS","1410","46.222573373","5.87248105275","cap_contact.fr_departement_1"
"fr_city_00100","CIVRIEUX","1390","45.922467454","4.88633786877","cap_contact.fr_departement_1"
"fr_city_00101","CIZE","1250","46.2003848172","5.45082526739","cap_contact.fr_departement_1"
"fr_city_00102","CLEYZIEU","1230","45.902146623","5.43272695486","cap_contact.fr_departement_1"
"fr_city_00103","COLIGNY","1270","46.3866637865","5.3308227014","cap_contact.fr_departement_1"
"fr_city_00104","COLLONGES","1550","46.1419227898","5.90040256654","cap_contact.fr_departement_1"
"fr_city_00105","COLOMIEU","1300","45.7361469025","5.62670101041","cap_contact.fr_departement_1"
"fr_city_00106","CONAND","1230","45.8834810846","5.47541328981","cap_contact.fr_departement_1"
"fr_city_00107","CONDAMINE","1430","46.105831161","5.55568206762","cap_contact.fr_departement_1"
"fr_city_00108","CONDEISSIAT","1400","46.1538469834","5.08437171701","cap_contact.fr_departement_1"
"fr_city_00109","CONFORT","1200","46.1543700156","5.83319395258","cap_contact.fr_departement_1"
"fr_city_00110","CONFRANCON","1310","46.270304175","5.05775217893","cap_contact.fr_departement_1"
"fr_city_00111","CONTREVOZ","1300","45.8009403071","5.62087768159","cap_contact.fr_departement_1"
"fr_city_00112","CONZIEU","1300","45.7253102173","5.60442351043","cap_contact.fr_departement_1"
"fr_city_00113","CORBONOD","1420","45.9659473187","5.78961970355","cap_contact.fr_departement_1"
"fr_city_00114","CORLIER","1110","46.0336885573","5.49635755029","cap_contact.fr_departement_1"
"fr_city_00115","CORMARANCHE EN BUGEY","1110","45.9442772826","5.60860828487","cap_contact.fr_departement_1"
"fr_city_00116","CORMORANCHE SUR SAONE","1290","46.2403530179","4.8276569593","cap_contact.fr_departement_1"
"fr_city_00117","CORMOZ","1560","46.4336632942","5.22181275755","cap_contact.fr_departement_1"
"fr_city_00118","CORVEISSIAT","1250","46.2505107235","5.47152467919","cap_contact.fr_departement_1"
"fr_city_00119","COURMANGOUX","1370","46.3267864521","5.35558241812","cap_contact.fr_departement_1"
"fr_city_00120","COURTES","1560","46.4570082032","5.11128546723","cap_contact.fr_departement_1"
"fr_city_00121","CRANS","1320","45.9663793103","5.19490390871","cap_contact.fr_departement_1"
"fr_city_00122","CRAS SUR REYSSOUZE","1340","46.3130831891","5.17796707174","cap_contact.fr_departement_1"
"fr_city_00123","CRESSIN ROCHEFORT","1350","45.7826434885","5.76546256637","cap_contact.fr_departement_1"
"fr_city_00124","CROTTET","1290","46.283072336","4.87747971182","cap_contact.fr_departement_1"
"fr_city_00125","CROTTET","1750","46.283072336","4.87747971182","cap_contact.fr_departement_1"
"fr_city_00126","CROZET","1170","46.2915659686","5.99510417092","cap_contact.fr_departement_1"
"fr_city_00127","CRUZILLES LES MEPILLAT","1290","46.2220588715","4.8752193513","cap_contact.fr_departement_1"
"fr_city_00128","CULOZ","1350","45.8559966843","5.78398308932","cap_contact.fr_departement_1"
"fr_city_00129","CURCIAT DONGALON","1560","46.4885456881","5.16344336837","cap_contact.fr_departement_1"
"fr_city_00130","CURTAFOND","1310","46.273150382","5.1020896267","cap_contact.fr_departement_1"
"fr_city_00131","CUZIEU","1300","45.8200002803","5.6765554896","cap_contact.fr_departement_1"
"fr_city_00132","DAGNEUX","1120","45.8531616918","5.07289166803","cap_contact.fr_departement_1"
"fr_city_00133","DIVONNE LES BAINS","1220","46.3756333495","6.1158647611","cap_contact.fr_departement_1"
"fr_city_00134","DOMMARTIN","1380","46.33627762","4.99863894","cap_contact.fr_departement_1"
"fr_city_00135","DOMPIERRE SUR VEYLE","1240","46.0667883703","5.21665199666","cap_contact.fr_departement_1"
"fr_city_00136","DOMPIERRE SUR CHALARONNE","1400","46.1415406621","4.90141714714","cap_contact.fr_departement_1"
"fr_city_00137","DOMSURE","1270","46.4244066427","5.29313479651","cap_contact.fr_departement_1"
"fr_city_00138","DORTAN","1590","46.3133221173","5.64146584117","cap_contact.fr_departement_1"
"fr_city_00139","DOUVRES","1500","45.984297392","5.37106901673","cap_contact.fr_departement_1"
"fr_city_00140","DROM","1250","46.2196603059","5.36799994918","cap_contact.fr_departement_1"
"fr_city_00141","DRUILLAT","1160","46.067579544","5.29361666429","cap_contact.fr_departement_1"
"fr_city_00142","ECHALLON","1130","46.2271364137","5.73330448395","cap_contact.fr_departement_1"
"fr_city_00143","ECHENEVEX","1170","46.3160845207","6.01926187996","cap_contact.fr_departement_1"
"fr_city_00144","ETREZ","1340","46.3380891758","5.19286414645","cap_contact.fr_departement_1"
"fr_city_00145","EVOSGES","1230","45.965147537","5.50283599885","cap_contact.fr_departement_1"
"fr_city_00146","FARAMANS","1800","45.9104942091","5.1249258559","cap_contact.fr_departement_1"
"fr_city_00147","FAREINS","1480","46.020997974","4.7620080898","cap_contact.fr_departement_1"
"fr_city_00148","FARGES","1550","46.166230455","5.90019477201","cap_contact.fr_departement_1"
"fr_city_00149","FEILLENS","1570","46.3365833672","4.88507050971","cap_contact.fr_departement_1"
"fr_city_00150","FERNEY VOLTAIRE","1210","46.2519789243","6.10826403805","cap_contact.fr_departement_1"
"fr_city_00151","FLAXIEU","1350","45.8113298005","5.74459048839","cap_contact.fr_departement_1"
"fr_city_00152","FOISSIAT","1340","46.3784759782","5.18483641417","cap_contact.fr_departement_1"
"fr_city_00153","FRANCHELEINS","1090","46.0735946256","4.81293575559","cap_contact.fr_departement_1"
"fr_city_00154","FRANS","1480","45.9939065077","4.78033196905","cap_contact.fr_departement_1"
"fr_city_00155","GARNERANS","1140","46.2136224825","4.82843188743","cap_contact.fr_departement_1"
"fr_city_00156","GENOUILLEUX","1090","46.1201611728","4.79288195016","cap_contact.fr_departement_1"
"fr_city_00157","BEARD GEOVREISSIAT","1460","46.1896733539","5.55139781353","cap_contact.fr_departement_1"
"fr_city_00158","GEOVREISSET","1100","46.2508621615","5.61271973915","cap_contact.fr_departement_1"
"fr_city_00159","GERMAGNAT","1250","46.3054983344","5.45012798616","cap_contact.fr_departement_1"
"fr_city_00160","GEX","1170","46.3471891747","6.04650555568","cap_contact.fr_departement_1"
"fr_city_00161","GIRON","1130","46.2227121191","5.78049809256","cap_contact.fr_departement_1"
"fr_city_00162","GORREVOD","1190","46.414943437","4.95120595427","cap_contact.fr_departement_1"
"fr_city_00163","GRAND CORENT","1250","46.207387937","5.43318666027","cap_contact.fr_departement_1"
"fr_city_00164","GRIEGES","1290","46.2633634407","4.84621318847","cap_contact.fr_departement_1"
"fr_city_00165","GRILLY","1220","46.3318810665","6.11366767978","cap_contact.fr_departement_1"
"fr_city_00166","GROISSIAT","1100","46.2260039429","5.61095413441","cap_contact.fr_departement_1"
"fr_city_00167","GUEREINS","1090","46.106624674","4.78159420118","cap_contact.fr_departement_1"
"fr_city_00168","HAUTECOURT ROMANECHE","1250","46.1611241927","5.42944457639","cap_contact.fr_departement_1"
"fr_city_00169","HAUTEVILLE LOMPNES","1110","45.9696520061","5.57627261783","cap_contact.fr_departement_1"
"fr_city_00170","HOSTIAZ","1110","45.9061631889","5.54077986031","cap_contact.fr_departement_1"
"fr_city_00171","HAUT VALROMEY","1260","46.0317412192","5.70267027388","cap_contact.fr_departement_1"
"fr_city_00172","ILLIAT","1140","46.1866986838","4.88840344003","cap_contact.fr_departement_1"
"fr_city_00173","INJOUX GENISSIAT","1200","46.0497734524","5.75991363273","cap_contact.fr_departement_1"
"fr_city_00174","INNIMOND","1680","45.7919647191","5.57389398559","cap_contact.fr_departement_1"
"fr_city_00175","IZENAVE","1430","46.0381623415","5.52447901164","cap_contact.fr_departement_1"
"fr_city_00176","IZERNORE","1580","46.2179780137","5.56258251719","cap_contact.fr_departement_1"
"fr_city_00177","IZIEU","1300","45.6557496407","5.63909140794","cap_contact.fr_departement_1"
"fr_city_00178","JASSANS RIOTTIER","1480","45.9777239103","4.75984637871","cap_contact.fr_departement_1"
"fr_city_00179","JASSERON","1250","46.2150037064","5.31215372338","cap_contact.fr_departement_1"
"fr_city_00180","JAYAT","1340","46.3660828991","5.11429701617","cap_contact.fr_departement_1"
"fr_city_00181","JOURNANS","1250","46.1464982407","5.33452833151","cap_contact.fr_departement_1"
"fr_city_00182","JOYEUX","1800","45.9499899849","5.10261326872","cap_contact.fr_departement_1"
"fr_city_00183","JUJURIEUX","1640","46.0497041467","5.41094771899","cap_contact.fr_departement_1"
"fr_city_00184","LABALME","1450","46.0932491295","5.49438685213","cap_contact.fr_departement_1"
"fr_city_00185","LAGNIEU","1150","45.8917015798","5.32917518895","cap_contact.fr_departement_1"
"fr_city_00186","LAIZ","1290","46.2469919709","4.89933490972","cap_contact.fr_departement_1"
"fr_city_00187","LE POIZAT LALLEYRIAT","1130","46.1479592076","5.71829194244","cap_contact.fr_departement_1"
"fr_city_00188","LANCRANS","1200","46.1323202721","5.84050985141","cap_contact.fr_departement_1"
"fr_city_00189","LANTENAY","1430","46.0544405897","5.54127421165","cap_contact.fr_departement_1"
"fr_city_00190","LAPEYROUSE","1330","45.9859131165","4.98196682865","cap_contact.fr_departement_1"
"fr_city_00191","LAVOURS","1350","45.8108837933","5.77267317838","cap_contact.fr_departement_1"
"fr_city_00192","LEAZ","1200","46.1086518044","5.87649017888","cap_contact.fr_departement_1"
"fr_city_00193","LELEX","1410","46.2855010936","5.92927713771","cap_contact.fr_departement_1"
"fr_city_00194","LENT","1240","46.1160216305","5.20200684747","cap_contact.fr_departement_1"
"fr_city_00195","LESCHEROUX","1560","46.4114892731","5.15107164478","cap_contact.fr_departement_1"
"fr_city_00196","LEYMENT","1150","45.9269989549","5.2947657235","cap_contact.fr_departement_1"
"fr_city_00197","LEYSSARD","1450","46.1624187428","5.47633297491","cap_contact.fr_departement_1"
"fr_city_00198","LHOPITAL","1420","46.0238143134","5.76236736492","cap_contact.fr_departement_1"
"fr_city_00199","LHUIS","1680","45.7444141403","5.53602066955","cap_contact.fr_departement_1"
"fr_city_00200","LOCHIEU","1260","45.9302479879","5.7413126836","cap_contact.fr_departement_1"
"fr_city_00201","LOMPNAS","1680","45.8105943351","5.52320457866","cap_contact.fr_departement_1"
"fr_city_00202","LOMPNIEU","1260","45.9690865613","5.65968816497","cap_contact.fr_departement_1"
"fr_city_00203","LOYETTES","1360","45.7921564114","5.21770971647","cap_contact.fr_departement_1"
"fr_city_00204","LURCY","1090","46.061730034","4.78075207026","cap_contact.fr_departement_1"
"fr_city_00205","MAGNIEU","1300","45.7754050255","5.71540945601","cap_contact.fr_departement_1"
"fr_city_00206","MAILLAT","1430","46.1201642836","5.52854394238","cap_contact.fr_departement_1"
"fr_city_00207","MALAFRETAZ","1340","46.3295545661","5.14386299599","cap_contact.fr_departement_1"
"fr_city_00208","MANTENAY MONTLIN","1560","46.4302754511","5.10675899732","cap_contact.fr_departement_1"
"fr_city_00209","MANZIAT","1570","46.3643830585","4.90242777155","cap_contact.fr_departement_1"
"fr_city_00210","MARBOZ","1851","46.3434312497","5.24374534963","cap_contact.fr_departement_1"
"fr_city_00211","MARCHAMP","1680","45.7738495266","5.54985181107","cap_contact.fr_departement_1"
"fr_city_00212","MARIGNIEU","1300","45.8010384947","5.71570352924","cap_contact.fr_departement_1"
"fr_city_00213","MARLIEUX","1240","46.0549073186","5.0741150816","cap_contact.fr_departement_1"
"fr_city_00214","MARSONNAS","1340","46.3409117711","5.06434294764","cap_contact.fr_departement_1"
"fr_city_00215","MARTIGNAT","1100","46.2030768095","5.61384033805","cap_contact.fr_departement_1"
"fr_city_00216","MASSIEUX","1600","45.9094016817","4.82779660051","cap_contact.fr_departement_1"
"fr_city_00217","MASSIGNIEU DE RIVES","1300","45.7571503942","5.7620535823","cap_contact.fr_departement_1"
"fr_city_00218","MATAFELON GRANGES","1580","46.2565319445","5.53958933702","cap_contact.fr_departement_1"
"fr_city_00219","MEILLONNAS","1370","46.244997627","5.33594738489","cap_contact.fr_departement_1"
"fr_city_00220","MERIGNAT","1450","46.0648564341","5.44210660051","cap_contact.fr_departement_1"
"fr_city_00221","MESSIMY SUR SAONE","1480","46.0472670758","4.75935643933","cap_contact.fr_departement_1"
"fr_city_00222","MEXIMIEUX","1800","45.9060530318","5.20404833653","cap_contact.fr_departement_1"
"fr_city_00223","BOHAS MEYRIAT RIGNAT","1250","46.1427060662","5.3780109646","cap_contact.fr_departement_1"
"fr_city_00224","MEZERIAT","1660","46.2423102101","5.04725416984","cap_contact.fr_departement_1"
"fr_city_00225","MIJOUX","1170","46.3622451724","6.00902631941","cap_contact.fr_departement_1"
"fr_city_00226","MIJOUX","1410","46.3622451724","6.00902631941","cap_contact.fr_departement_1"
"fr_city_00227","MIONNAY","1390","45.8955939299","4.92416967439","cap_contact.fr_departement_1"
"fr_city_00228","MIRIBEL","1700","45.8442099203","4.94106746787","cap_contact.fr_departement_1"
"fr_city_00229","MISERIEUX","1600","45.9762325343","4.81028471711","cap_contact.fr_departement_1"
"fr_city_00230","MOGNENEINS","1140","46.1446696076","4.820110702","cap_contact.fr_departement_1"
"fr_city_00231","MONTAGNAT","1250","46.1686969123","5.27962107938","cap_contact.fr_departement_1"
"fr_city_00232","MONTAGNIEU","1470","45.799449019","5.46428608859","cap_contact.fr_departement_1"
"fr_city_00233","MONTANGES","1200","46.17325293","5.79006091307","cap_contact.fr_departement_1"
"fr_city_00234","MONTCEAUX","1090","46.0962893261","4.80453564172","cap_contact.fr_departement_1"
"fr_city_00235","MONTCET","1310","46.219333227","5.11149132074","cap_contact.fr_departement_1"
"fr_city_00236","LE MONTELLIER","1800","45.9287482486","5.07092815964","cap_contact.fr_departement_1"
"fr_city_00237","MONTHIEUX","1390","45.9622791838","4.94555984534","cap_contact.fr_departement_1"
"fr_city_00238","MONTLUEL","1120","45.8909006209","5.01987566185","cap_contact.fr_departement_1"
"fr_city_00239","MONTMERLE SUR SAONE","1090","46.0849573236","4.7608579486","cap_contact.fr_departement_1"
"fr_city_00240","MONTRACOL","1310","46.1867200301","5.11706011755","cap_contact.fr_departement_1"
"fr_city_00241","MONTREAL LA CLUSE","1460","46.1795688194","5.59510550127","cap_contact.fr_departement_1"
"fr_city_00242","MONTREVEL EN BRESSE","1340","46.3252811442","5.11295966315","cap_contact.fr_departement_1"
"fr_city_00243","NURIEUX VOLOGNAT","1460","46.1830720992","5.51435812316","cap_contact.fr_departement_1"
"fr_city_00244","MURS ET GELIGNIEUX","1300","45.6420014274","5.66039684889","cap_contact.fr_departement_1"
"fr_city_00245","NANTUA","1130","46.1537845403","5.61352793799","cap_contact.fr_departement_1"
"fr_city_00246","NANTUA","1460","46.1537845403","5.61352793799","cap_contact.fr_departement_1"
"fr_city_00247","NEUVILLE LES DAMES","1400","46.1567753049","5.00942432434","cap_contact.fr_departement_1"
"fr_city_00248","NEUVILLE SUR AIN","1160","46.0909654813","5.37349784691","cap_contact.fr_departement_1"
"fr_city_00249","LES NEYROLLES","1130","46.1342937114","5.63714517869","cap_contact.fr_departement_1"
"fr_city_00250","NEYRON","1700","45.8184192468","4.9309045685","cap_contact.fr_departement_1"
"fr_city_00251","NIEVROZ","1120","45.8222941077","5.05949629195","cap_contact.fr_departement_1"
"fr_city_00252","NIVOLLET MONTGRIFFON","1230","45.9999448244","5.45847815374","cap_contact.fr_departement_1"
"fr_city_00253","ONCIEU","1230","45.9651165469","5.47146617499","cap_contact.fr_departement_1"
"fr_city_00254","ORDONNAZ","1510","45.8339690378","5.5395794296","cap_contact.fr_departement_1"
"fr_city_00255","ORNEX","1210","46.2774557513","6.09454723599","cap_contact.fr_departement_1"
"fr_city_00256","OUTRIAZ","1430","46.067796636","5.55697547429","cap_contact.fr_departement_1"
"fr_city_00257","OYONNAX","1100","46.2605435859","5.65344320923","cap_contact.fr_departement_1"
"fr_city_00258","OZAN","1190","46.3867168877","4.91805840196","cap_contact.fr_departement_1"
"fr_city_00259","PARCIEUX","1600","45.9184267932","4.82747423402","cap_contact.fr_departement_1"
"fr_city_00260","PARVES ET NATTAGES","1300","45.7437340183","5.73800737134","cap_contact.fr_departement_1"
"fr_city_00261","PERON","1630","46.1913554154","5.91968751164","cap_contact.fr_departement_1"
"fr_city_00262","PERONNAS","1960","46.1711903413","5.21802169564","cap_contact.fr_departement_1"
"fr_city_00263","PEROUGES","1800","45.8803945768","5.17955874977","cap_contact.fr_departement_1"
"fr_city_00264","PERREX","1540","46.2465065604","4.97464940331","cap_contact.fr_departement_1"
"fr_city_00265","PEYRIAT","1430","46.1498184067","5.50572312284","cap_contact.fr_departement_1"
"fr_city_00266","PEYRIEU","1300","45.6762428663","5.67912809192","cap_contact.fr_departement_1"
"fr_city_00267","PEYZIEUX SUR SAONE","1140","46.1226331853","4.82243226719","cap_contact.fr_departement_1"
"fr_city_00268","PIRAJOUX","1270","46.385801285","5.27417594024","cap_contact.fr_departement_1"
"fr_city_00269","PIZAY","1120","45.8928509581","5.08915465965","cap_contact.fr_departement_1"
"fr_city_00270","PLAGNE","1130","46.1883038423","5.71763811249","cap_contact.fr_departement_1"
"fr_city_00271","LE PLANTAY","1330","46.0230264227","5.08912046926","cap_contact.fr_departement_1"
"fr_city_00272","POLLIAT","1310","46.2463108642","5.13794412439","cap_contact.fr_departement_1"
"fr_city_00273","POLLIEU","1350","45.7965373468","5.74794515549","cap_contact.fr_departement_1"
"fr_city_00274","PONCIN","1450","46.089530586","5.41681266947","cap_contact.fr_departement_1"
"fr_city_00275","PONT D AIN","1160","46.0542077091","5.34703652618","cap_contact.fr_departement_1"
"fr_city_00276","PONT DE VAUX","1190","46.4422864477","4.92862459427","cap_contact.fr_departement_1"
"fr_city_00277","PONT DE VEYLE","1290","46.2637215091","4.88186068102","cap_contact.fr_departement_1"
"fr_city_00278","PORT","1460","46.155963139","5.57615832883","cap_contact.fr_departement_1"
"fr_city_00279","POUGNY","1550","46.1450914685","5.95100479291","cap_contact.fr_departement_1"
"fr_city_00280","POUILLAT","1250","46.3219301481","5.42318000482","cap_contact.fr_departement_1"
"fr_city_00281","PREMEYZEL","1300","45.6806263123","5.64396081449","cap_contact.fr_departement_1"
"fr_city_00282","PREMILLIEU","1110","45.876457149","5.56475010385","cap_contact.fr_departement_1"
"fr_city_00283","PREVESSIN MOENS","1280","46.25827228","6.07223251859","cap_contact.fr_departement_1"
"fr_city_00284","PRIAY","1160","46.0197521486","5.28523353803","cap_contact.fr_departement_1"
"fr_city_00285","PUGIEU","1510","45.8176794806","5.64970405499","cap_contact.fr_departement_1"
"fr_city_00286","RAMASSE","1250","46.1905550894","5.35572056985","cap_contact.fr_departement_1"
"fr_city_00287","RANCE","1390","45.9673905154","4.86343025951","cap_contact.fr_departement_1"
"fr_city_00288","RELEVANT","1990","46.0843657897","4.94176845356","cap_contact.fr_departement_1"
"fr_city_00289","REPLONGES","1750","46.3077356023","4.8746938271","cap_contact.fr_departement_1"
"fr_city_00290","REVONNAS","1250","46.1615355815","5.33543916388","cap_contact.fr_departement_1"
"fr_city_00291","REYRIEUX","1600","45.9367652442","4.82840395968","cap_contact.fr_departement_1"
"fr_city_00292","REYSSOUZE","1190","46.4285569061","4.91285056272","cap_contact.fr_departement_1"
"fr_city_00293","RIGNIEUX LE FRANC","1800","45.9518762734","5.16936671105","cap_contact.fr_departement_1"
"fr_city_00294","ROMANS","1400","46.1237520756","5.0217131176","cap_contact.fr_departement_1"
"fr_city_00295","ROSSILLON","1510","45.8363854589","5.59926863007","cap_contact.fr_departement_1"
"fr_city_00296","RUFFIEU","1260","46.0037108867","5.65322391497","cap_contact.fr_departement_1"
"fr_city_00297","ST ALBAN","1450","46.0983335519","5.45573839846","cap_contact.fr_departement_1"
"fr_city_00298","ST ANDRE DE BAGE","1380","46.298541568","4.91411565769","cap_contact.fr_departement_1"
"fr_city_00299","ST ANDRE DE CORCY","1390","45.927001954","4.95373324492","cap_contact.fr_departement_1"
"fr_city_00300","ST ANDRE D HUIRIAT","1290","46.2140960915","4.91291358797","cap_contact.fr_departement_1"
"fr_city_00301","ST ANDRE LE BOUCHOUX","1240","46.1131399612","5.0802376895","cap_contact.fr_departement_1"
"fr_city_00302","ST ANDRE SUR VIEUX JONC","1960","46.1492410532","5.14175200148","cap_contact.fr_departement_1"
"fr_city_00303","ST BENIGNE","1190","46.4519173207","4.95309825903","cap_contact.fr_departement_1"
"fr_city_00304","GROSLEE ST BENOIT","1300","45.6891842277","5.5843972561","cap_contact.fr_departement_1"
"fr_city_00305","GROSLEE ST BENOIT","1680","45.6891842277","5.5843972561","cap_contact.fr_departement_1"
"fr_city_00306","ST BERNARD","1600","45.9493830581","4.74276628471","cap_contact.fr_departement_1"
"fr_city_00307","ST CHAMP","1300","45.7825741014","5.7326531461","cap_contact.fr_departement_1"
"fr_city_00308","STE CROIX","1120","45.895522477","5.04935536228","cap_contact.fr_departement_1"
"fr_city_00309","ST CYR SUR MENTHON","1380","46.2754005606","4.96757105158","cap_contact.fr_departement_1"
"fr_city_00310","ST DENIS LES BOURG","1000","46.2111998453","5.18462806771","cap_contact.fr_departement_1"
"fr_city_00311","ST DENIS EN BUGEY","1500","45.9488551151","5.32367701698","cap_contact.fr_departement_1"
"fr_city_00312","ST DIDIER D AUSSIAT","1340","46.3069992095","5.05820697692","cap_contact.fr_departement_1"
"fr_city_00313","ST DIDIER DE FORMANS","1600","45.9564926067","4.77766764875","cap_contact.fr_departement_1"
"fr_city_00314","ST DIDIER SUR CHALARONNE","1140","46.1840408682","4.81645666173","cap_contact.fr_departement_1"
"fr_city_00315","ST ELOI","1800","45.9322494861","5.15187041178","cap_contact.fr_departement_1"
"fr_city_00316","ST ETIENNE DU BOIS","1370","46.2749447261","5.28428557632","cap_contact.fr_departement_1"
"fr_city_00317","ST ETIENNE SUR CHALARONNE","1140","46.1468059584","4.86696454244","cap_contact.fr_departement_1"
"fr_city_00318","ST ETIENNE SUR REYSSOUZE","1190","46.4030398952","5.00605581573","cap_contact.fr_departement_1"
"fr_city_00319","STE EUPHEMIE","1600","45.9669798317","4.79478189169","cap_contact.fr_departement_1"
"fr_city_00320","ST GENIS POUILLY","1630","46.254539333","6.0362907345","cap_contact.fr_departement_1"
"fr_city_00321","ST GENIS SUR MENTHON","1380","46.2815955593","5.01311826405","cap_contact.fr_departement_1"
"fr_city_00322","ST GEORGES SUR RENON","1400","46.1037951263","5.03001967494","cap_contact.fr_departement_1"
"fr_city_00323","ST GERMAIN DE JOUX","1130","46.1821955394","5.74672259773","cap_contact.fr_departement_1"
"fr_city_00324","ST GERMAIN LES PAROISSES","1300","45.7709749249","5.61753440834","cap_contact.fr_departement_1"
"fr_city_00325","ST GERMAIN SUR RENON","1240","46.0797285417","5.06090903982","cap_contact.fr_departement_1"
"fr_city_00326","ST JEAN DE GONVILLE","1630","46.2178585727","5.94203093769","cap_contact.fr_departement_1"
"fr_city_00327","ST JEAN DE NIOST","1800","45.8405002569","5.21167430462","cap_contact.fr_departement_1"
"fr_city_00328","ST JEAN DE THURIGNEUX","1390","45.9598424323","4.89936410681","cap_contact.fr_departement_1"
"fr_city_00329","ST JEAN LE VIEUX","1640","46.0291437714","5.38252835538","cap_contact.fr_departement_1"
"fr_city_00330","ST JEAN SUR REYSSOUZE","1560","46.3972479854","5.06297763777","cap_contact.fr_departement_1"
"fr_city_00331","ST JEAN SUR VEYLE","1290","46.2683632132","4.92198366998","cap_contact.fr_departement_1"
"fr_city_00332","STE JULIE","1150","45.8819723176","5.28452304614","cap_contact.fr_departement_1"
"fr_city_00333","ST JULIEN SUR REYSSOUZE","1560","46.3997655501","5.10354296019","cap_contact.fr_departement_1"
"fr_city_00334","ST JULIEN SUR VEYLE","1540","46.2014862081","4.959356342","cap_contact.fr_departement_1"
"fr_city_00335","ST JUST","1250","46.1929758576","5.28494181398","cap_contact.fr_departement_1"
"fr_city_00336","ST LAURENT SUR SAONE","1750","46.3051486294","4.83949202669","cap_contact.fr_departement_1"
"fr_city_00337","ST MARCEL","1390","45.9485803654","4.9896671017","cap_contact.fr_departement_1"
"fr_city_00338","ST MARTIN DE BAVEL","1510","45.848212674","5.67889099153","cap_contact.fr_departement_1"
"fr_city_00339","ST MARTIN DU FRENE","1430","46.135983782","5.57106016428","cap_contact.fr_departement_1"
"fr_city_00340","ST MARTIN DU MONT","1160","46.1061500835","5.32551470817","cap_contact.fr_departement_1"
"fr_city_00341","ST MARTIN LE CHATEL","1310","46.291445874","5.12291715091","cap_contact.fr_departement_1"
"fr_city_00342","ST MAURICE DE BEYNOST","1700","45.8343709108","4.97726215174","cap_contact.fr_departement_1"
"fr_city_00343","ST MAURICE DE GOURDANS","1800","45.8200191939","5.16980415584","cap_contact.fr_departement_1"
"fr_city_00344","ST MAURICE DE REMENS","1500","45.9527471237","5.2708276475","cap_contact.fr_departement_1"
"fr_city_00345","ST NIZIER LE BOUCHOUX","1560","46.4528537121","5.1759906585","cap_contact.fr_departement_1"
"fr_city_00346","ST NIZIER LE DESERT","1320","46.052861561","5.14246131764","cap_contact.fr_departement_1"
"fr_city_00347","STE OLIVE","1330","46.0142006121","4.93624894982","cap_contact.fr_departement_1"
"fr_city_00348","ST PAUL DE VARAX","1240","46.0956691617","5.12762470203","cap_contact.fr_departement_1"
"fr_city_00349","ST RAMBERT EN BUGEY","1230","45.9504631708","5.44017084612","cap_contact.fr_departement_1"
"fr_city_00350","ST REMY","1310","46.1846642149","5.16771354778","cap_contact.fr_departement_1"
"fr_city_00351","ST SORLIN EN BUGEY","1150","45.886308438","5.37608915006","cap_contact.fr_departement_1"
"fr_city_00352","ST SULPICE","1340","46.3209806116","5.04148389346","cap_contact.fr_departement_1"
"fr_city_00353","ST TRIVIER DE COURTES","1560","46.4612969335","5.06679195727","cap_contact.fr_departement_1"
"fr_city_00354","ST TRIVIER SUR MOIGNANS","1990","46.0618477991","4.90158948884","cap_contact.fr_departement_1"
"fr_city_00355","ST VULBAS","1150","45.8222315102","5.27019602929","cap_contact.fr_departement_1"
"fr_city_00356","SALAVRE","1270","46.3635396668","5.34742387197","cap_contact.fr_departement_1"
"fr_city_00357","SAMOGNAT","1580","46.2648715781","5.58607689306","cap_contact.fr_departement_1"
"fr_city_00358","SANDRANS","1400","46.0656961548","4.98282673172","cap_contact.fr_departement_1"
"fr_city_00359","SAULT BRENAZ","1150","45.8654038798","5.40416104083","cap_contact.fr_departement_1"
"fr_city_00360","SAUVERNY","1220","46.3126908233","6.11043836433","cap_contact.fr_departement_1"
"fr_city_00361","SAVIGNEUX","1480","45.997346828","4.8576200906","cap_contact.fr_departement_1"
"fr_city_00362","SEGNY","1170","46.2935928404","6.07287743792","cap_contact.fr_departement_1"
"fr_city_00363","SEILLONNAZ","1470","45.7976976614","5.49810658524","cap_contact.fr_departement_1"
"fr_city_00364","SERGY","1630","46.2626243003","5.98914553194","cap_contact.fr_departement_1"
"fr_city_00365","SERMOYER","1190","46.4981991944","4.97856020441","cap_contact.fr_departement_1"
"fr_city_00366","SERRIERES DE BRIORD","1470","45.8133219416","5.44125880379","cap_contact.fr_departement_1"
"fr_city_00367","SERRIERES SUR AIN","1450","46.1466977757","5.45023362942","cap_contact.fr_departement_1"
"fr_city_00368","SERVAS","1960","46.1385540577","5.17887070992","cap_contact.fr_departement_1"
"fr_city_00369","SERVIGNAT","1560","46.4346497878","5.05559973107","cap_contact.fr_departement_1"
"fr_city_00370","SEYSSEL","1420","45.9484118176","5.82616979887","cap_contact.fr_departement_1"
"fr_city_00371","SIMANDRE SUR SURAN","1250","46.2340471594","5.42240815305","cap_contact.fr_departement_1"
"fr_city_00372","SONTHONNAX LA MONTAGNE","1580","46.2229768712","5.50566888767","cap_contact.fr_departement_1"
"fr_city_00373","SOUCLIN","1150","45.8781798572","5.43058627512","cap_contact.fr_departement_1"
"fr_city_00374","SULIGNAT","1400","46.1735383313","4.95772382526","cap_contact.fr_departement_1"
"fr_city_00375","SURJOUX","1420","46.030402108","5.79957920623","cap_contact.fr_departement_1"
"fr_city_00376","SUTRIEU","1260","45.9311367808","5.64988248129","cap_contact.fr_departement_1"
"fr_city_00377","TALISSIEU","1510","45.8637167128","5.72090411074","cap_contact.fr_departement_1"
"fr_city_00378","TENAY","1230","45.922698278","5.51453923595","cap_contact.fr_departement_1"
"fr_city_00379","THEZILLIEU","1110","45.8931883593","5.59700638944","cap_contact.fr_departement_1"
"fr_city_00380","THIL","1120","45.8169214201","5.0184098869","cap_contact.fr_departement_1"
"fr_city_00381","THOIRY","1710","46.2435475879","5.96506297987","cap_contact.fr_departement_1"
"fr_city_00382","THOISSEY","1140","46.1700943481","4.79387095814","cap_contact.fr_departement_1"
"fr_city_00383","TORCIEU","1230","45.92125055","5.40400282244","cap_contact.fr_departement_1"
"fr_city_00384","TOSSIAT","1250","46.1384790158","5.30400055922","cap_contact.fr_departement_1"
"fr_city_00385","TOUSSIEUX","1600","45.959898291","4.82898610612","cap_contact.fr_departement_1"
"fr_city_00386","TRAMOYES","1390","45.8745670311","4.9639268325","cap_contact.fr_departement_1"
"fr_city_00387","LA TRANCLIERE","1160","46.0970027075","5.26099875456","cap_contact.fr_departement_1"
"fr_city_00388","VAL REVERMONT","1370","46.2803281838","5.36083165162","cap_contact.fr_departement_1"
"fr_city_00389","TREVOUX","1600","45.940671655","4.7714415007","cap_contact.fr_departement_1"
"fr_city_00390","VALEINS","1140","46.1146467438","4.86551696868","cap_contact.fr_departement_1"
"fr_city_00391","VANDEINS","1660","46.217806795","5.08189056957","cap_contact.fr_departement_1"
"fr_city_00392","VARAMBON","1160","46.0433928197","5.2947944594","cap_contact.fr_departement_1"
"fr_city_00393","VAUX EN BUGEY","1150","45.9201205456","5.36353184193","cap_contact.fr_departement_1"
"fr_city_00394","VERJON","1270","46.3459093717","5.34853019646","cap_contact.fr_departement_1"
"fr_city_00395","VERNOUX","1560","46.4848229774","5.10590413121","cap_contact.fr_departement_1"
"fr_city_00396","VERSAILLEUX","1330","45.9854373478","5.11204819151","cap_contact.fr_departement_1"
"fr_city_00397","VERSONNEX","1210","46.2997631425","6.10057952207","cap_contact.fr_departement_1"
"fr_city_00398","VESANCY","1170","46.3610768127","6.08470665475","cap_contact.fr_departement_1"
"fr_city_00399","VESCOURS","1560","46.4743960759","5.02617426573","cap_contact.fr_departement_1"
"fr_city_00400","VESINES","1570","46.3593397751","4.86265852202","cap_contact.fr_departement_1"
"fr_city_00401","VIEU D IZENAVE","1430","46.0853386653","5.54922100161","cap_contact.fr_departement_1"
"fr_city_00402","VIEU","1260","45.8898392612","5.68999399947","cap_contact.fr_departement_1"
"fr_city_00403","VILLARS LES DOMBES","1330","45.9927150222","5.04507856642","cap_contact.fr_departement_1"
"fr_city_00404","VILLEBOIS","1150","45.8485624628","5.44711117486","cap_contact.fr_departement_1"
"fr_city_00405","VILLEMOTIER","1270","46.3458538978","5.31036160991","cap_contact.fr_departement_1"
"fr_city_00406","VILLENEUVE","1480","46.0319048788","4.85182526102","cap_contact.fr_departement_1"
"fr_city_00407","VILLEREVERSURE","1250","46.1926750369","5.3947679407","cap_contact.fr_departement_1"
"fr_city_00408","VILLES","1200","46.0954293058","5.7569250415","cap_contact.fr_departement_1"
"fr_city_00409","VILLETTE SUR AIN","1320","46.0099989032","5.25214547187","cap_contact.fr_departement_1"
"fr_city_00410","VILLIEU LOYES MOLLON","1800","45.932014998","5.22953071636","cap_contact.fr_departement_1"
"fr_city_00411","VIRIAT","1440","46.2508985632","5.22302249216","cap_contact.fr_departement_1"
"fr_city_00412","VIRIEU LE GRAND","1510","45.8464417872","5.63971940347","cap_contact.fr_departement_1"
"fr_city_00413","VIRIEU LE PETIT","1260","45.9063608209","5.73707051523","cap_contact.fr_departement_1"
"fr_city_00414","VIRIGNIN","1300","45.7267387762","5.71282330936","cap_contact.fr_departement_1"
"fr_city_00415","VONGNES","1350","45.8129059524","5.72536666767","cap_contact.fr_departement_1"
"fr_city_00416","VONNAS","1540","46.2168871367","4.99744373712","cap_contact.fr_departement_1"
"fr_city_00417","ABBECOURT","2300","49.5991518653","3.17708232927","cap_contact.fr_departement_2"
"fr_city_00418","ACHERY","2800","49.6936187791","3.39735632148","cap_contact.fr_departement_2"
"fr_city_00419","ACY","2200","49.3471963534","3.41817609834","cap_contact.fr_departement_2"
"fr_city_00420","AGNICOURT ET SECHELLES","2340","49.7166573626","3.96043211816","cap_contact.fr_departement_2"
"fr_city_00421","AGUILCOURT","2190","49.393650796","3.96803679426","cap_contact.fr_departement_2"
"fr_city_00422","AISONVILLE ET BERNOVILLE","2110","49.930148162","3.51120205593","cap_contact.fr_departement_2"
"fr_city_00423","AIZELLES","2820","49.4848002918","3.81870255331","cap_contact.fr_departement_2"
"fr_city_00424","AIZY JOUY","2370","49.4384256824","3.51149185429","cap_contact.fr_departement_2"
"fr_city_00425","ALAINCOURT","2240","49.7667120841","3.36639043616","cap_contact.fr_departement_2"
"fr_city_00426","ALLEMANT","2320","49.4624440593","3.45394275872","cap_contact.fr_departement_2"
"fr_city_00427","AMBLENY","2290","49.3762672939","3.18334679178","cap_contact.fr_departement_2"
"fr_city_00428","AMBRIEF","2200","49.3215250088","3.40362196255","cap_contact.fr_departement_2"
"fr_city_00429","AMIFONTAINE","2190","49.498787026","3.92278993322","cap_contact.fr_departement_2"
"fr_city_00430","AMIGNY ROUY","2700","49.6108275885","3.30289341579","cap_contact.fr_departement_2"
"fr_city_00431","ANCIENVILLE","2600","49.2186389559","3.20808809779","cap_contact.fr_departement_2"
"fr_city_00432","ANDELAIN","2800","49.6411808161","3.3695440898","cap_contact.fr_departement_2"
"fr_city_00433","ANGUILCOURT LE SART","2800","49.6940879195","3.42823182437","cap_contact.fr_departement_2"
"fr_city_00434","ANIZY LE CHATEAU","2320","49.5045058305","3.43129584952","cap_contact.fr_departement_2"
"fr_city_00435","ANNOIS","2480","49.7210674108","3.17611501401","cap_contact.fr_departement_2"
"fr_city_00436","ANY MARTIN RIEUX","2500","49.8823706752","4.22351346907","cap_contact.fr_departement_2"
"fr_city_00437","ARCHON","2360","49.744126618","4.11908765808","cap_contact.fr_departement_2"
"fr_city_00438","ARCY STE RESTITUE","2130","49.2548799371","3.47829076337","cap_contact.fr_departement_2"
"fr_city_00439","ARMENTIERES SUR OURCQ","2210","49.1734232511","3.38789647903","cap_contact.fr_departement_2"
"fr_city_00440","ARRANCY","2860","49.4989016398","3.7647230005","cap_contact.fr_departement_2"
"fr_city_00441","ARTEMPS","2480","49.7617999337","3.19725095546","cap_contact.fr_departement_2"
"fr_city_00442","ASSIS SUR SERRE","2270","49.6803739117","3.55491692691","cap_contact.fr_departement_2"
"fr_city_00443","ATHIES SOUS LAON","2840","49.5757750686","3.69006632109","cap_contact.fr_departement_2"
"fr_city_00444","ATTILLY","2490","49.8554489068","3.15363305662","cap_contact.fr_departement_2"
"fr_city_00445","AUBENCHEUL AUX BOIS","2420","50.0239903854","3.26103215604","cap_contact.fr_departement_2"
"fr_city_00446","AUBENTON","2500","49.8252306759","4.19066939985","cap_contact.fr_departement_2"
"fr_city_00447","AUBIGNY AUX KAISNES","2590","49.7721524634","3.1192565988","cap_contact.fr_departement_2"
"fr_city_00448","AUBIGNY EN LAONNOIS","2820","49.4968821185","3.79282850765","cap_contact.fr_departement_2"
"fr_city_00449","AUDIGNICOURT","2300","49.4777157214","3.12718502825","cap_contact.fr_departement_2"
"fr_city_00450","AUDIGNY","2120","49.8660645425","3.6312599901","cap_contact.fr_departement_2"
"fr_city_00451","AUGY","2220","49.340063724","3.5110198819","cap_contact.fr_departement_2"
"fr_city_00452","AULNOIS SOUS LAON","2000","49.6198117499","3.60981962105","cap_contact.fr_departement_2"
"fr_city_00453","LES AUTELS","2360","49.7608855336","4.22422505762","cap_contact.fr_departement_2"
"fr_city_00454","AUTREMENCOURT","2250","49.7051244442","3.79419867292","cap_contact.fr_departement_2"
"fr_city_00455","AUTREPPES","2580","49.8969849321","3.85601033505","cap_contact.fr_departement_2"
"fr_city_00456","AUTREVILLE","2300","49.5860875305","3.23602708427","cap_contact.fr_departement_2"
"fr_city_00457","AZY SUR MARNE","2400","49.0039701095","3.35913214045","cap_contact.fr_departement_2"
"fr_city_00458","BAGNEUX","2290","49.4601139731","3.27945330014","cap_contact.fr_departement_2"
"fr_city_00459","BANCIGNY","2140","49.7978711595","4.03669866073","cap_contact.fr_departement_2"
"fr_city_00460","BARENTON BUGNY","2000","49.6218589779","3.66103056579","cap_contact.fr_departement_2"
"fr_city_00461","BARENTON CEL","2000","49.6477517259","3.64469997459","cap_contact.fr_departement_2"
"fr_city_00462","BARENTON SUR SERRE","2270","49.66833977","3.68940610952","cap_contact.fr_departement_2"
"fr_city_00463","BARISIS AUX BOIS","2700","49.577979369","3.32804487461","cap_contact.fr_departement_2"
"fr_city_00464","BARZY EN THIERACHE","2170","50.0395375873","3.74901595409","cap_contact.fr_departement_2"
"fr_city_00465","BARZY SUR MARNE","2850","49.0906196202","3.56214117254","cap_contact.fr_departement_2"
"fr_city_00466","BASSOLES AULERS","2380","49.5332813699","3.38492604839","cap_contact.fr_departement_2"
"fr_city_00467","VALLEES EN CHAMPAGNE","2330","48.9896915811","3.60486686026","cap_contact.fr_departement_2"
"fr_city_00468","BAZOCHES SUR VESLES","2220","49.3070586788","3.61583126589","cap_contact.fr_departement_2"
"fr_city_00469","BEAUME","2500","49.8211281836","4.15200066545","cap_contact.fr_departement_2"
"fr_city_00470","BEAUMONT EN BEINE","2300","49.6874633882","3.13133369335","cap_contact.fr_departement_2"
"fr_city_00471","BEAUREVOIR","2110","49.9965608612","3.32970842537","cap_contact.fr_departement_2"
"fr_city_00472","BEAURIEUX","2160","49.402806797","3.75287161991","cap_contact.fr_departement_2"
"fr_city_00473","BEAUTOR","2800","49.648319958","3.33811188104","cap_contact.fr_departement_2"
"fr_city_00474","BEAUVOIS EN VERMANDOIS","2590","49.8339921767","3.10282045546","cap_contact.fr_departement_2"
"fr_city_00475","BECQUIGNY","2110","50.0158703814","3.45898644538","cap_contact.fr_departement_2"
"fr_city_00476","BELLEAU","2400","49.0829128265","3.30049173293","cap_contact.fr_departement_2"
"fr_city_00477","BELLENGLISE","2420","49.9261057081","3.2441994692","cap_contact.fr_departement_2"
"fr_city_00478","BELLEU","2200","49.3567574344","3.34051688283","cap_contact.fr_departement_2"
"fr_city_00479","BELLICOURT","2420","49.9592991729","3.23020850852","cap_contact.fr_departement_2"
"fr_city_00480","BENAY","2440","49.755094123","3.30909898139","cap_contact.fr_departement_2"
"fr_city_00481","BERGUES SUR SAMBRE","2450","50.0294686238","3.711371001","cap_contact.fr_departement_2"
"fr_city_00482","BERLANCOURT","2250","49.7808533631","3.75710714699","cap_contact.fr_departement_2"
"fr_city_00483","BERLISE","2340","49.6622290606","4.11314086897","cap_contact.fr_departement_2"
"fr_city_00484","BERNOT","2120","49.8793651304","3.48665456392","cap_contact.fr_departement_2"
"fr_city_00485","BERNY RIVIERE","2290","49.4113288887","3.14975272702","cap_contact.fr_departement_2"
"fr_city_00486","BERRIEUX","2820","49.4823563962","3.8521031839","cap_contact.fr_departement_2"
"fr_city_00487","BERRY AU BAC","2190","49.4084985083","3.8985497785","cap_contact.fr_departement_2"
"fr_city_00488","BERTAUCOURT EPOURDON","2800","49.6276056573","3.39748988886","cap_contact.fr_departement_2"
"fr_city_00489","BERTHENICOURT","2240","49.7788058177","3.37247241058","cap_contact.fr_departement_2"
"fr_city_00490","BERTRICOURT","2190","49.3975285682","4.01146178698","cap_contact.fr_departement_2"
"fr_city_00491","BERZY LE SEC","2200","49.3172125296","3.29666086699","cap_contact.fr_departement_2"
"fr_city_00492","BESME","2300","49.5341682819","3.16474171361","cap_contact.fr_departement_2"
"fr_city_00493","BESMONT","2500","49.823361306","4.11768907822","cap_contact.fr_departement_2"
"fr_city_00494","BESNY ET LOIZY","2870","49.5928792816","3.57657238799","cap_contact.fr_departement_2"
"fr_city_00495","BETHANCOURT EN VAUX","2300","49.6290547772","3.14064657935","cap_contact.fr_departement_2"
"fr_city_00496","BEUGNEUX","2210","49.2275759309","3.41647403702","cap_contact.fr_departement_2"
"fr_city_00497","BEUVARDES","2130","49.1308547007","3.49165019107","cap_contact.fr_departement_2"
"fr_city_00498","BEZU LE GUERY","2310","49.0102591835","3.22764610411","cap_contact.fr_departement_2"
"fr_city_00499","BEZU ST GERMAIN","2400","49.1046732888","3.40812513224","cap_contact.fr_departement_2"
"fr_city_00500","BICHANCOURT","2300","49.578776546","3.21263017443","cap_contact.fr_departement_2"
"fr_city_00501","BIEUXY","2290","49.4476050585","3.26985890807","cap_contact.fr_departement_2"
"fr_city_00502","BIEVRES","2860","49.4921822965","3.7137356904","cap_contact.fr_departement_2"
"fr_city_00503","BILLY SUR AISNE","2200","49.3556556532","3.37609947556","cap_contact.fr_departement_2"
"fr_city_00504","BILLY SUR OURCQ","2210","49.2215032882","3.29903267663","cap_contact.fr_departement_2"
"fr_city_00505","BLANZY LES FISMES","2160","49.3372673738","3.671868408","cap_contact.fr_departement_2"
"fr_city_00506","BLERANCOURT","2300","49.5076223945","3.15179502187","cap_contact.fr_departement_2"
"fr_city_00507","BLESMES","2400","49.0264919363","3.46405474705","cap_contact.fr_departement_2"
"fr_city_00508","BOHAIN EN VERMANDOIS","2110","49.989032874","3.46522354976","cap_contact.fr_departement_2"
"fr_city_00509","BOIS LES PARGNY","2270","49.7369350689","3.65414834535","cap_contact.fr_departement_2"
"fr_city_00510","BONCOURT","2350","49.6264861998","3.956447719","cap_contact.fr_departement_2"
"fr_city_00511","BONNEIL","2400","49.0082419817","3.3459478468","cap_contact.fr_departement_2"
"fr_city_00512","BONNESVALYN","2400","49.1264049496","3.32541661771","cap_contact.fr_departement_2"
"fr_city_00513","BONY","2420","49.9908643724","3.22116002448","cap_contact.fr_departement_2"
"fr_city_00514","BOSMONT SUR SERRE","2250","49.7390653213","3.86733568391","cap_contact.fr_departement_2"
"fr_city_00515","BOUCONVILLE VAUCLAIR","2860","49.4606212957","3.75658607824","cap_contact.fr_departement_2"
"fr_city_00516","BOUE","2450","50.0114554001","3.71432024852","cap_contact.fr_departement_2"
"fr_city_00517","BOUFFIGNEREUX","2160","49.3788374998","3.84626014622","cap_contact.fr_departement_2"
"fr_city_00518","BOURESCHES","2400","49.0671787396","3.31728226934","cap_contact.fr_departement_2"
"fr_city_00519","BOURG ET COMIN","2160","49.4022354002","3.65944342757","cap_contact.fr_departement_2"
"fr_city_00520","BOURGUIGNON SOUS COUCY","2300","49.5427641575","3.15422957657","cap_contact.fr_departement_2"
"fr_city_00521","BOURGUIGNON SOUS MONTBAVIN","2000","49.5288056883","3.53777236106","cap_contact.fr_departement_2"
"fr_city_00522","LA BOUTEILLE","2140","49.8778828965","3.96243530235","cap_contact.fr_departement_2"
"fr_city_00523","BRAINE","2220","49.3484719318","3.53596629744","cap_contact.fr_departement_2"
"fr_city_00524","BRANCOURT EN LAONNOIS","2320","49.5176286609","3.41282321335","cap_contact.fr_departement_2"
"fr_city_00525","BRANCOURT LE GRAND","2110","49.98081057","3.39391192109","cap_contact.fr_departement_2"
"fr_city_00526","BRASLES","2400","49.0567927241","3.42453409652","cap_contact.fr_departement_2"
"fr_city_00527","BRAYE EN LAONNOIS","2000","49.4375773374","3.60977976284","cap_contact.fr_departement_2"
"fr_city_00528","BRAYE EN THIERACHE","2140","49.7675470994","3.96265841899","cap_contact.fr_departement_2"
"fr_city_00529","BRAY ST CHRISTOPHE","2480","49.7746700975","3.14070965091","cap_contact.fr_departement_2"
"fr_city_00530","BRAYE","2880","49.4221361409","3.37829006511","cap_contact.fr_departement_2"
"fr_city_00531","BRECY","2210","49.1398626041","3.42373097034","cap_contact.fr_departement_2"
"fr_city_00532","BRENELLE","2220","49.3680052078","3.5442035574","cap_contact.fr_departement_2"
"fr_city_00533","BRENY","2210","49.1842783438","3.34972495405","cap_contact.fr_departement_2"
"fr_city_00534","BRIE","2870","49.5973962294","3.4733634659","cap_contact.fr_departement_2"
"fr_city_00535","BRISSAY CHOIGNY","2240","49.7228299725","3.39639768252","cap_contact.fr_departement_2"
"fr_city_00536","BRISSY HAMEGICOURT","2240","49.7432786375","3.39968837909","cap_contact.fr_departement_2"
"fr_city_00537","BRUMETZ","2810","49.1103074474","3.15291445147","cap_contact.fr_departement_2"
"fr_city_00538","BRUNEHAMEL","2360","49.7718100626","4.18649398572","cap_contact.fr_departement_2"
"fr_city_00539","BRUYERES SUR FERE","2130","49.1996571467","3.44535846468","cap_contact.fr_departement_2"
"fr_city_00540","BRUYERES ET MONTBERAULT","2860","49.5239615523","3.66954693798","cap_contact.fr_departement_2"
"fr_city_00541","BRUYS","2220","49.2621681637","3.56863439754","cap_contact.fr_departement_2"
"fr_city_00542","BUCILLY","2500","49.8658103548","4.09323369949","cap_contact.fr_departement_2"
"fr_city_00543","BUCY LE LONG","2880","49.3884447185","3.39828602712","cap_contact.fr_departement_2"
"fr_city_00544","BUCY LES CERNY","2870","49.5790852566","3.496908306","cap_contact.fr_departement_2"
"fr_city_00545","BUCY LES PIERREPONT","2350","49.6467998089","3.90358311553","cap_contact.fr_departement_2"
"fr_city_00546","BUIRE","2500","49.9070296259","4.05674542304","cap_contact.fr_departement_2"
"fr_city_00547","BUIRONFOSSE","2620","49.9577111138","3.838016082","cap_contact.fr_departement_2"
"fr_city_00548","BURELLES","2140","49.7687046874","3.91196369709","cap_contact.fr_departement_2"
"fr_city_00549","BUSSIARES","2810","49.0765910572","3.25026191909","cap_contact.fr_departement_2"
"fr_city_00550","BUZANCY","2200","49.3099528163","3.3478744079","cap_contact.fr_departement_2"
"fr_city_00551","CAILLOUEL CREPIGNY","2300","49.6176055636","3.12169527347","cap_contact.fr_departement_2"
"fr_city_00552","CAMELIN","2300","49.5205248253","3.12854853594","cap_contact.fr_departement_2"
"fr_city_00553","LA CAPELLE","2260","49.9732109539","3.91398483546","cap_contact.fr_departement_2"
"fr_city_00554","CASTRES","2680","49.8013894137","3.25325245088","cap_contact.fr_departement_2"
"fr_city_00555","LE CATELET","2420","50.0009779444","3.2423098464","cap_contact.fr_departement_2"
"fr_city_00556","CAULAINCOURT","2490","49.864658382","3.11126489473","cap_contact.fr_departement_2"
"fr_city_00557","CAUMONT","2300","49.6372659106","3.17347612819","cap_contact.fr_departement_2"
"fr_city_00558","CELLES LES CONDE","2330","49.0148161041","3.57007423847","cap_contact.fr_departement_2"
"fr_city_00559","CELLES SUR AISNE","2370","49.4159264546","3.47446927431","cap_contact.fr_departement_2"
"fr_city_00560","CERIZY","2240","49.7670333979","3.33255021354","cap_contact.fr_departement_2"
"fr_city_00561","CERNY EN LAONNOIS","2860","49.4500150087","3.67982439455","cap_contact.fr_departement_2"
"fr_city_00562","CERNY LES BUCY","2870","49.5778658953","3.54646763896","cap_contact.fr_departement_2"
"fr_city_00563","CERSEUIL","2220","49.324784775","3.51746919082","cap_contact.fr_departement_2"
"fr_city_00564","CESSIERES","2320","49.5595788079","3.50190405701","cap_contact.fr_departement_2"
"fr_city_00565","CHACRISE","2200","49.3002009035","3.39759102537","cap_contact.fr_departement_2"
"fr_city_00566","CHAILLEVOIS","2000","49.5081654549","3.52234605948","cap_contact.fr_departement_2"
"fr_city_00567","CHALANDRY","2270","49.6702675165","3.64445509533","cap_contact.fr_departement_2"
"fr_city_00568","CHAMBRY","2000","49.5986366056","3.67200832611","cap_contact.fr_departement_2"
"fr_city_00569","CHAMOUILLE","2860","49.4720646954","3.67062673062","cap_contact.fr_departement_2"
"fr_city_00570","CHAMPS","2670","49.5434967943","3.2618311238","cap_contact.fr_departement_2"
"fr_city_00571","CHAOURSE","2340","49.7007898116","3.98562292281","cap_contact.fr_departement_2"
"fr_city_00572","LA CHAPELLE SUR CHEZY","2570","48.9492049177","3.37662807022","cap_contact.fr_departement_2"
"fr_city_00573","CHARLY SUR MARNE","2310","48.9898678258","3.29365157876","cap_contact.fr_departement_2"
"fr_city_00574","LE CHARMEL","2850","49.1121866037","3.54125960951","cap_contact.fr_departement_2"
"fr_city_00575","CHARMES","2800","49.6508532429","3.38525104222","cap_contact.fr_departement_2"
"fr_city_00576","CHARTEVES","2400","49.0898127369","3.50871838479","cap_contact.fr_departement_2"
"fr_city_00577","CHASSEMY","2370","49.3783410842","3.50271467967","cap_contact.fr_departement_2"
"fr_city_00578","CHATEAU THIERRY","2400","49.0564070801","3.38160004843","cap_contact.fr_departement_2"
"fr_city_00579","CHATILLON LES SONS","2270","49.7618503091","3.70312508858","cap_contact.fr_departement_2"
"fr_city_00580","CHATILLON SUR OISE","2240","49.7938161671","3.41630401708","cap_contact.fr_departement_2"
"fr_city_00581","CHAUDARDES","2160","49.3962562981","3.78942153696","cap_contact.fr_departement_2"
"fr_city_00582","CHAUDUN","2200","49.3150223009","3.25276338247","cap_contact.fr_departement_2"
"fr_city_00583","CHAUNY","2300","49.619880673","3.21875355041","cap_contact.fr_departement_2"
"fr_city_00584","CHAVIGNON","2000","49.4794437147","3.51936895626","cap_contact.fr_departement_2"
"fr_city_00585","CHAVIGNY","2880","49.4232730431","3.30567490669","cap_contact.fr_departement_2"
"fr_city_00586","CHAVONNE","2370","49.4073162185","3.56243209622","cap_contact.fr_departement_2"
"fr_city_00587","CHERET","2860","49.5141661683","3.68718851388","cap_contact.fr_departement_2"
"fr_city_00588","CHERMIZY AILLES","2860","49.4629888139","3.71995479046","cap_contact.fr_departement_2"
"fr_city_00589","CHERY CHARTREUVE","2220","49.2556867214","3.60484629397","cap_contact.fr_departement_2"
"fr_city_00590","CHERY LES POUILLY","2000","49.6488389918","3.59416271271","cap_contact.fr_departement_2"
"fr_city_00591","CHERY LES ROZOY","2360","49.7222192886","4.1011989282","cap_contact.fr_departement_2"
"fr_city_00592","CHEVENNES","2250","49.818366417","3.7371313317","cap_contact.fr_departement_2"
"fr_city_00593","CHEVREGNY","2000","49.4661009452","3.59365333616","cap_contact.fr_departement_2"
"fr_city_00594","CHEVRESIS MONCEAU","2270","49.7616780422","3.5837583969","cap_contact.fr_departement_2"
"fr_city_00595","CHEZY EN ORXOIS","2810","49.1268031885","3.16759094422","cap_contact.fr_departement_2"
"fr_city_00596","CHEZY SUR MARNE","2570","48.983996655","3.38226485102","cap_contact.fr_departement_2"
"fr_city_00597","CHIERRY","2400","49.035155356","3.43302324278","cap_contact.fr_departement_2"
"fr_city_00598","CHIGNY","2120","49.9298846139","3.77489645427","cap_contact.fr_departement_2"
"fr_city_00599","CHIVRES EN LAONNOIS","2350","49.6268606782","3.85603255601","cap_contact.fr_departement_2"
"fr_city_00600","CHIVRES VAL","2880","49.4029298198","3.43836038727","cap_contact.fr_departement_2"
"fr_city_00601","CHIVY LES ETOUVELLES","2000","49.5326303582","3.58562168803","cap_contact.fr_departement_2"
"fr_city_00602","CHOUY","2210","49.2167334121","3.24708004454","cap_contact.fr_departement_2"
"fr_city_00603","CIERGES","2130","49.1648316775","3.60411788847","cap_contact.fr_departement_2"
"fr_city_00604","CILLY","2250","49.7490011958","3.84000022806","cap_contact.fr_departement_2"
"fr_city_00605","CIRY SALSOGNE","2220","49.3674868367","3.46778299062","cap_contact.fr_departement_2"
"fr_city_00606","CLACY ET THIERRET","2000","49.5524137158","3.56557185412","cap_contact.fr_departement_2"
"fr_city_00607","CLAIRFONTAINE","2260","49.9739945177","3.98660655282","cap_contact.fr_departement_2"
"fr_city_00608","CLAMECY","2880","49.4281077825","3.36378754787","cap_contact.fr_departement_2"
"fr_city_00609","CLASTRES","2440","49.7488769741","3.2302033407","cap_contact.fr_departement_2"
"fr_city_00610","CLERMONT LES FERMES","2340","49.6601654327","3.94320327145","cap_contact.fr_departement_2"
"fr_city_00611","COEUVRES ET VALSERY","2600","49.3295432232","3.15290453511","cap_contact.fr_departement_2"
"fr_city_00612","COINCY","2210","49.1632280955","3.43633795455","cap_contact.fr_departement_2"
"fr_city_00613","COINGT","2360","49.7923246397","4.09591303887","cap_contact.fr_departement_2"
"fr_city_00614","COLLIGIS CRANDELAIN","2860","49.4666159338","3.63042181928","cap_contact.fr_departement_2"
"fr_city_00615","COLONFAY","2120","49.8584586783","3.71138683561","cap_contact.fr_departement_2"
"fr_city_00616","COMMENCHON","2300","49.6416913377","3.15095437349","cap_contact.fr_departement_2"
"fr_city_00617","CONCEVREUX","2160","49.3764478648","3.78830446161","cap_contact.fr_departement_2"
"fr_city_00618","CONDE EN BRIE","2330","49.0016101753","3.56116999962","cap_contact.fr_departement_2"
"fr_city_00619","CONDE SUR AISNE","2370","49.4007552828","3.46571591087","cap_contact.fr_departement_2"
"fr_city_00620","CONDE SUR SUIPPE","2190","49.4138370327","3.94498449027","cap_contact.fr_departement_2"
"fr_city_00621","CONDREN","2700","49.6370236167","3.27726632135","cap_contact.fr_departement_2"
"fr_city_00622","CONNIGIS","2330","49.0359363932","3.53287282671","cap_contact.fr_departement_2"
"fr_city_00623","CONTESCOURT","2680","49.7916934603","3.23428350737","cap_contact.fr_departement_2"
"fr_city_00624","CORBENY","2820","49.4620558975","3.82654082441","cap_contact.fr_departement_2"
"fr_city_00625","CORCY","2600","49.2549892095","3.19724367023","cap_contact.fr_departement_2"
"fr_city_00626","COUCY LE CHATEAU AUFFRIQUE","2380","49.5159709578","3.31548892957","cap_contact.fr_departement_2"
"fr_city_00627","COUCY LES EPPES","2840","49.5566159059","3.77716711865","cap_contact.fr_departement_2"
"fr_city_00628","COUCY LA VILLE","2380","49.5405792355","3.34372156034","cap_contact.fr_departement_2"
"fr_city_00629","COULONGES COHAN","2130","49.1980463524","3.62776592985","cap_contact.fr_departement_2"
"fr_city_00630","COUPRU","2310","49.0313536349","3.2743801467","cap_contact.fr_departement_2"
"fr_city_00631","COURBES","2800","49.6815888779","3.46004834981","cap_contact.fr_departement_2"
"fr_city_00632","COURBOIN","2330","48.9960917184","3.50690687861","cap_contact.fr_departement_2"
"fr_city_00633","COURCELLES SUR VESLE","2220","49.348025885","3.57684035869","cap_contact.fr_departement_2"
"fr_city_00634","COURCHAMPS","2810","49.1164230809","3.26303714363","cap_contact.fr_departement_2"
"fr_city_00635","COURMELLES","2200","49.3434328339","3.30199112892","cap_contact.fr_departement_2"
"fr_city_00636","COURMONT","2130","49.1377444173","3.57546880498","cap_contact.fr_departement_2"
"fr_city_00637","COURTEMONT VARENNES","2850","49.0715288855","3.54168079771","cap_contact.fr_departement_2"
"fr_city_00638","COURTRIZY ET FUSSIGNY","2820","49.5140957547","3.79503800634","cap_contact.fr_departement_2"
"fr_city_00639","COUVRELLES","2220","49.3339841009","3.48486954064","cap_contact.fr_departement_2"
"fr_city_00640","COUVRON ET AUMENCOURT","2270","49.6458776473","3.52446684584","cap_contact.fr_departement_2"
"fr_city_00641","COYOLLES","2600","49.2133089693","3.01306173751","cap_contact.fr_departement_2"
"fr_city_00642","CRAMAILLE","2130","49.2285541737","3.45227303073","cap_contact.fr_departement_2"
"fr_city_00643","CRAONNE","2160","49.4476368348","3.79203280761","cap_contact.fr_departement_2"
"fr_city_00644","CRAONNELLE","2160","49.4254999308","3.77686483236","cap_contact.fr_departement_2"
"fr_city_00645","CRECY AU MONT","2380","49.4839031807","3.31195074309","cap_contact.fr_departement_2"
"fr_city_00646","CRECY SUR SERRE","2270","49.698624191","3.62256564798","cap_contact.fr_departement_2"
"fr_city_00647","CREPY","2870","49.6082534854","3.5125070585","cap_contact.fr_departement_2"
"fr_city_00648","CREZANCY","2650","49.0428713757","3.51138201699","cap_contact.fr_departement_2"
"fr_city_00649","CROIX FONSOMME","2110","49.9306761102","3.39430326005","cap_contact.fr_departement_2"
"fr_city_00650","LA CROIX SUR OURCQ","2210","49.1598010602","3.35048905306","cap_contact.fr_departement_2"
"fr_city_00651","CROUTTES SUR MARNE","2310","48.9791200153","3.24757642131","cap_contact.fr_departement_2"
"fr_city_00652","CROUY","2880","49.4078535405","3.36640020468","cap_contact.fr_departement_2"
"fr_city_00653","CRUPILLY","2120","49.9313828796","3.75249198254","cap_contact.fr_departement_2"
"fr_city_00654","CUFFIES","2880","49.4081126802","3.32236958826","cap_contact.fr_departement_2"
"fr_city_00655","CUGNY","2480","49.7031009123","3.15424498862","cap_contact.fr_departement_2"
"fr_city_00656","CUIRIEUX","2350","49.6834404265","3.81994750866","cap_contact.fr_departement_2"
"fr_city_00657","CUIRY HOUSSE","2220","49.2904033438","3.48843248507","cap_contact.fr_departement_2"
"fr_city_00658","CUIRY LES CHAUDARDES","2160","49.3897631676","3.76227512623","cap_contact.fr_departement_2"
"fr_city_00659","CUIRY LES IVIERS","2360","49.7661751176","4.10397751712","cap_contact.fr_departement_2"
"fr_city_00660","CUISSY ET GENY","2160","49.4034575347","3.70612307803","cap_contact.fr_departement_2"
"fr_city_00661","CUISY EN ALMONT","2200","49.4207417064","3.24887510168","cap_contact.fr_departement_2"
"fr_city_00662","CUTRY","2600","49.3442753875","3.19127169549","cap_contact.fr_departement_2"
"fr_city_00663","CYS LA COMMUNE","2220","49.3837163848","3.57235420125","cap_contact.fr_departement_2"
"fr_city_00664","DAGNY LAMBERCY","2140","49.7690562311","4.04218248631","cap_contact.fr_departement_2"
"fr_city_00665","DALLON","2680","49.8240617542","3.23031219742","cap_contact.fr_departement_2"
"fr_city_00666","DAMMARD","2470","49.1470522556","3.17719709632","cap_contact.fr_departement_2"
"fr_city_00667","DAMPLEUX","2600","49.2414407733","3.14413128827","cap_contact.fr_departement_2"
"fr_city_00668","DANIZY","2800","49.6665738585","3.40089557013","cap_contact.fr_departement_2"
"fr_city_00669","DERCY","2270","49.709705981","3.68499803784","cap_contact.fr_departement_2"
"fr_city_00670","DEUILLET","2700","49.6285991184","3.36051598302","cap_contact.fr_departement_2"
"fr_city_00671","DHUIZEL","2220","49.3602201297","3.61487590771","cap_contact.fr_departement_2"
"fr_city_00672","DIZY LE GROS","2340","49.6355575735","4.01312880234","cap_contact.fr_departement_2"
"fr_city_00673","DOHIS","2360","49.7667554096","4.14178746545","cap_contact.fr_departement_2"
"fr_city_00674","DOLIGNON","2360","49.7338298517","4.08637882793","cap_contact.fr_departement_2"
"fr_city_00675","DOMMIERS","2600","49.3290731499","3.21634686939","cap_contact.fr_departement_2"
"fr_city_00676","DOMPTIN","2310","49.0156995656","3.27296497779","cap_contact.fr_departement_2"
"fr_city_00677","DORENGT","2450","49.9652064178","3.7033753973","cap_contact.fr_departement_2"
"fr_city_00678","DOUCHY","2590","49.7940905147","3.13035849025","cap_contact.fr_departement_2"
"fr_city_00679","DRAVEGNY","2130","49.2391906053","3.64128453803","cap_contact.fr_departement_2"
"fr_city_00680","DROIZY","2210","49.2773564352","3.38965007811","cap_contact.fr_departement_2"
"fr_city_00681","DURY","2480","49.751235296","3.13377121735","cap_contact.fr_departement_2"
"fr_city_00682","EBOULEAU","2350","49.6781110152","3.88259465732","cap_contact.fr_departement_2"
"fr_city_00683","EFFRY","2500","49.9191180654","3.98790173223","cap_contact.fr_departement_2"
"fr_city_00684","ENGLANCOURT","2260","49.9258825845","3.80718694445","cap_contact.fr_departement_2"
"fr_city_00685","EPAGNY","2290","49.471791053","3.25384432012","cap_contact.fr_departement_2"
"fr_city_00686","EPARCY","2500","49.8861370225","4.0702371205","cap_contact.fr_departement_2"
"fr_city_00687","EPAUX BEZU","2400","49.1029988371","3.35359350285","cap_contact.fr_departement_2"
"fr_city_00688","EPIEDS","2400","49.1045180167","3.45072347386","cap_contact.fr_departement_2"
"fr_city_00689","L EPINE AUX BOIS","2540","48.8992804015","3.44384138078","cap_contact.fr_departement_2"
"fr_city_00690","EPPES","2840","49.5523855068","3.73980858367","cap_contact.fr_departement_2"
"fr_city_00691","ERLON","2250","49.7348278249","3.70534450333","cap_contact.fr_departement_2"
"fr_city_00692","ERLOY","2260","49.9195909244","3.83764920476","cap_contact.fr_departement_2"
"fr_city_00693","ESQUEHERIES","2170","49.9822300914","3.75309920982","cap_contact.fr_departement_2"
"fr_city_00694","ESSIGNY LE GRAND","2690","49.7740780116","3.27214459324","cap_contact.fr_departement_2"
"fr_city_00695","ESSIGNY LE PETIT","2100","49.8961825414","3.36742260207","cap_contact.fr_departement_2"
"fr_city_00696","ESSISES","2570","48.9666904843","3.41396491705","cap_contact.fr_departement_2"
"fr_city_00697","ESSOMES SUR MARNE","2400","49.0341132047","3.34014174183","cap_contact.fr_departement_2"
"fr_city_00698","ESTREES","2420","49.9705842912","3.2801536166","cap_contact.fr_departement_2"
"fr_city_00699","ETAMPES SUR MARNE","2400","49.0317558536","3.41777664616","cap_contact.fr_departement_2"
"fr_city_00700","ETAVES ET BOCQUIAUX","2110","49.9310354275","3.45081301205","cap_contact.fr_departement_2"
"fr_city_00701","ETOUVELLES","2000","49.5186450995","3.58156180986","cap_contact.fr_departement_2"
"fr_city_00702","ETREAUPONT","2580","49.8962633822","3.92348915288","cap_contact.fr_departement_2"
"fr_city_00703","ETREILLERS","2590","49.8325776228","3.15800068609","cap_contact.fr_departement_2"
"fr_city_00704","ETREPILLY","2400","49.0822681369","3.34802063568","cap_contact.fr_departement_2"
"fr_city_00705","ETREUX","2510","49.9996010721","3.65890491685","cap_contact.fr_departement_2"
"fr_city_00706","EVERGNICOURT","2190","49.4564306975","4.03631753944","cap_contact.fr_departement_2"
"fr_city_00707","FAUCOUCOURT","2320","49.5334418244","3.46663902605","cap_contact.fr_departement_2"
"fr_city_00708","FAVEROLLES","2600","49.227064775","3.17814481548","cap_contact.fr_departement_2"
"fr_city_00709","FAYET","2100","49.8710844824","3.25278845948","cap_contact.fr_departement_2"
"fr_city_00710","LA FERE","2800","49.6662828073","3.36938834693","cap_contact.fr_departement_2"
"fr_city_00711","FERE EN TARDENOIS","2130","49.1875000917","3.51106425515","cap_contact.fr_departement_2"
"fr_city_00712","LA FERTE CHEVRESIS","2270","49.7409973498","3.55129770695","cap_contact.fr_departement_2"
"fr_city_00713","LA FERTE MILON","2460","49.1759874423","3.14237641756","cap_contact.fr_departement_2"
"fr_city_00714","FESMY LE SART","2450","50.0482154856","3.69825469199","cap_contact.fr_departement_2"
"fr_city_00715","FESTIEUX","2840","49.5252642949","3.76013631694","cap_contact.fr_departement_2"
"fr_city_00716","FIEULAINE","2110","49.9018502295","3.44594045878","cap_contact.fr_departement_2"
"fr_city_00717","FILAIN","2000","49.4528807514","3.5574063541","cap_contact.fr_departement_2"
"fr_city_00718","LA FLAMENGRIE","2260","50.0002036206","3.92466690244","cap_contact.fr_departement_2"
"fr_city_00719","FLAVIGNY LE GRAND ET BEAURAIN","2120","49.8865505663","3.67406409367","cap_contact.fr_departement_2"
"fr_city_00720","FLAVY LE MARTEL","2520","49.7047240534","3.19451403575","cap_contact.fr_departement_2"
"fr_city_00721","FLEURY","2600","49.2652863131","3.15947064674","cap_contact.fr_departement_2"
"fr_city_00722","FLUQUIERES","2590","49.800435087","3.15658582012","cap_contact.fr_departement_2"
"fr_city_00723","FOLEMBRAY","2670","49.5492820594","3.29319165625","cap_contact.fr_departement_2"
"fr_city_00724","FONSOMME","2110","49.9012467271","3.39650664791","cap_contact.fr_departement_2"
"fr_city_00725","FONTAINE LES CLERCS","2680","49.8078439274","3.21253412905","cap_contact.fr_departement_2"
"fr_city_00726","FONTAINE LES VERVINS","2140","49.8537390603","3.90543025367","cap_contact.fr_departement_2"
"fr_city_00727","FONTAINE NOTRE DAME","2110","49.8785724713","3.42380596752","cap_contact.fr_departement_2"
"fr_city_00728","FONTAINE UTERTE","2110","49.9252841672","3.36796234214","cap_contact.fr_departement_2"
"fr_city_00729","FONTENELLE","2170","50.0309452362","3.84625365761","cap_contact.fr_departement_2"
"fr_city_00730","FONTENOY","2290","49.4099999437","3.19454758662","cap_contact.fr_departement_2"
"fr_city_00731","FORESTE","2590","49.8055794029","3.09615936707","cap_contact.fr_departement_2"
"fr_city_00732","FOSSOY","2650","49.044990122","3.48523126715","cap_contact.fr_departement_2"
"fr_city_00733","FOURDRAIN","2870","49.6194184451","3.46049121118","cap_contact.fr_departement_2"
"fr_city_00734","FRANCILLY SELENCY","2760","49.8546596853","3.22822036861","cap_contact.fr_departement_2"
"fr_city_00735","FRANQUEVILLE","2140","49.8164125588","3.79770261738","cap_contact.fr_departement_2"
"fr_city_00736","FRESNES EN TARDENOIS","2130","49.1427948273","3.54893406985","cap_contact.fr_departement_2"
"fr_city_00737","FRESNES","2380","49.5548078585","3.37018022508","cap_contact.fr_departement_2"
"fr_city_00738","FRESNOY LE GRAND","2230","49.9540724704","3.41858032499","cap_contact.fr_departement_2"
"fr_city_00739","FRESSANCOURT","2800","49.6284783975","3.42727910427","cap_contact.fr_departement_2"
"fr_city_00740","FRIERES FAILLOUEL","2700","49.6835552621","3.23680430341","cap_contact.fr_departement_2"
"fr_city_00741","FROIDESTREES","2260","49.9427092508","3.91032175248","cap_contact.fr_departement_2"
"fr_city_00742","FROIDMONT COHARTILLE","2270","49.6818768902","3.72070844849","cap_contact.fr_departement_2"
"fr_city_00743","GANDELU","2810","49.0832089104","3.18156231552","cap_contact.fr_departement_2"
"fr_city_00744","GAUCHY","2430","49.8234688599","3.28649189661","cap_contact.fr_departement_2"
"fr_city_00745","GERCY","2140","49.8158108138","3.87133277309","cap_contact.fr_departement_2"
"fr_city_00746","GERGNY","2260","49.9326319225","3.92972384714","cap_contact.fr_departement_2"
"fr_city_00747","GERMAINE","2590","49.8124843843","3.11903042429","cap_contact.fr_departement_2"
"fr_city_00748","GERNICOURT","2160","49.3952382352","3.86382109909","cap_contact.fr_departement_2"
"fr_city_00749","GIBERCOURT","2440","49.7393520234","3.28269647304","cap_contact.fr_departement_2"
"fr_city_00750","GIZY","2350","49.6104960814","3.76786152197","cap_contact.fr_departement_2"
"fr_city_00751","GLAND","2400","49.0579740538","3.45713931457","cap_contact.fr_departement_2"
"fr_city_00752","GOUDELANCOURT LES BERRIEUX","2820","49.4946764579","3.85858670968","cap_contact.fr_departement_2"
"fr_city_00753","GOUDELANCOURT LES PIERREPONT","2350","49.6783296824","3.85162740345","cap_contact.fr_departement_2"
"fr_city_00754","GOUSSANCOURT","2130","49.1608459229","3.65658681802","cap_contact.fr_departement_2"
"fr_city_00755","GOUY","2420","49.9987486908","3.26458305638","cap_contact.fr_departement_2"
"fr_city_00756","GRANDLUP ET FAY","2350","49.6512687794","3.73646950468","cap_contact.fr_departement_2"
"fr_city_00757","GRANDRIEUX","2360","49.7291718471","4.1879249496","cap_contact.fr_departement_2"
"fr_city_00758","GRICOURT","2100","49.8869947757","3.23960817466","cap_contact.fr_departement_2"
"fr_city_00759","GRISOLLES","2210","49.130183511","3.37217369933","cap_contact.fr_departement_2"
"fr_city_00760","GRONARD","2140","49.7963196915","3.88176918551","cap_contact.fr_departement_2"
"fr_city_00761","GROUGIS","2110","49.9508110437","3.53098081744","cap_contact.fr_departement_2"
"fr_city_00762","GRUGIES","2680","49.8100941328","3.2751623814","cap_contact.fr_departement_2"
"fr_city_00763","GUIGNICOURT","2190","49.4433017606","3.95534582458","cap_contact.fr_departement_2"
"fr_city_00764","GUISE","2120","49.8960415076","3.62476062929","cap_contact.fr_departement_2"
"fr_city_00765","GUIVRY","2300","49.651625761","3.12103476493","cap_contact.fr_departement_2"
"fr_city_00766","GUNY","2300","49.5120153085","3.26082658052","cap_contact.fr_departement_2"
"fr_city_00767","GUYENCOURT","2160","49.3573380108","3.84132930883","cap_contact.fr_departement_2"
"fr_city_00768","HANNAPES","2510","49.9771158104","3.61442642232","cap_contact.fr_departement_2"
"fr_city_00769","HAPPENCOURT","2480","49.7825905619","3.1831286327","cap_contact.fr_departement_2"
"fr_city_00770","HARAMONT","2600","49.2872759039","3.03148977109","cap_contact.fr_departement_2"
"fr_city_00771","HARCIGNY","2140","49.80256362","3.9828364762","cap_contact.fr_departement_2"
"fr_city_00772","HARGICOURT","2420","49.9664492878","3.19055510378","cap_contact.fr_departement_2"
"fr_city_00773","HARLY","2100","49.8407051764","3.33484724239","cap_contact.fr_departement_2"
"fr_city_00774","HARTENNES ET TAUX","2210","49.2789534457","3.35763287633","cap_contact.fr_departement_2"
"fr_city_00775","HARY","2140","49.797388651","3.91927403736","cap_contact.fr_departement_2"
"fr_city_00776","LEHAUCOURT","2420","49.911760676","3.27675235436","cap_contact.fr_departement_2"
"fr_city_00777","HAUTEVESNES","2810","49.1088469374","3.2356780284","cap_contact.fr_departement_2"
"fr_city_00778","HAUTEVILLE","2120","49.8884981223","3.52369340599","cap_contact.fr_departement_2"
"fr_city_00779","HAUTION","2140","49.8721128525","3.82719888249","cap_contact.fr_departement_2"
"fr_city_00780","LA HERIE","2500","49.8838269882","4.04360657052","cap_contact.fr_departement_2"
"fr_city_00781","LE HERIE LA VIEVILLE","2120","49.8222697536","3.65376324724","cap_contact.fr_departement_2"
"fr_city_00782","HINACOURT","2440","49.7459956466","3.29422566384","cap_contact.fr_departement_2"
"fr_city_00783","HIRSON","2500","49.9426458618","4.10483732841","cap_contact.fr_departement_2"
"fr_city_00784","HOLNON","2760","49.8612556888","3.20085325892","cap_contact.fr_departement_2"
"fr_city_00785","HOMBLIERES","2720","49.8577543083","3.37495127984","cap_contact.fr_departement_2"
"fr_city_00786","HOURY","2140","49.7861780633","3.84806416077","cap_contact.fr_departement_2"
"fr_city_00787","HOUSSET","2250","49.7961649956","3.69539262425","cap_contact.fr_departement_2"
"fr_city_00788","IRON","2510","49.9504309458","3.6652978953","cap_contact.fr_departement_2"
"fr_city_00789","ITANCOURT","2240","49.803442885","3.34942752527","cap_contact.fr_departement_2"
"fr_city_00790","IVIERS","2360","49.7858863872","4.13552902559","cap_contact.fr_departement_2"
"fr_city_00791","JAULGONNE","2850","49.0895236955","3.53359601877","cap_contact.fr_departement_2"
"fr_city_00792","JEANCOURT","2490","49.9288562683","3.14778805313","cap_contact.fr_departement_2"
"fr_city_00793","JEANTES","2140","49.8127276252","4.06715502895","cap_contact.fr_departement_2"
"fr_city_00794","JONCOURT","2420","49.9601487798","3.30407272701","cap_contact.fr_departement_2"
"fr_city_00795","JOUAIGNES","2220","49.2928418789","3.52818628425","cap_contact.fr_departement_2"
"fr_city_00796","JUMENCOURT","2380","49.5122950231","3.34939792383","cap_contact.fr_departement_2"
"fr_city_00797","JUMIGNY","2160","49.4083834603","3.72524669282","cap_contact.fr_departement_2"
"fr_city_00798","JUSSY","2480","49.7172050931","3.23611732777","cap_contact.fr_departement_2"
"fr_city_00799","JUVIGNY","2880","49.44857677","3.31533781107","cap_contact.fr_departement_2"
"fr_city_00800","JUVINCOURT ET DAMARY","2190","49.4468853425","3.89147198339","cap_contact.fr_departement_2"
"fr_city_00801","LAFFAUX","2880","49.4494770874","3.42995693216","cap_contact.fr_departement_2"
"fr_city_00802","LAIGNY","2140","49.8631466398","3.86133626518","cap_contact.fr_departement_2"
"fr_city_00803","LANCHY","2590","49.8292105187","3.07415428089","cap_contact.fr_departement_2"
"fr_city_00804","LANDIFAY ET BERTAIGNEMONT","2120","49.8255553996","3.60399989958","cap_contact.fr_departement_2"
"fr_city_00805","LANDOUZY LA COUR","2140","49.8441415789","3.99358286375","cap_contact.fr_departement_2"
"fr_city_00806","LANDOUZY LA VILLE","2140","49.8562890185","4.05045506584","cap_contact.fr_departement_2"
"fr_city_00807","LANDRICOURT","2380","49.505420346","3.36950507041","cap_contact.fr_departement_2"
"fr_city_00808","LANISCOURT","2000","49.5469118723","3.53406747358","cap_contact.fr_departement_2"
"fr_city_00809","LAON","2000","49.5679724897","3.62089561902","cap_contact.fr_departement_2"
"fr_city_00810","LAPPION","2150","49.5898015281","3.96457967258","cap_contact.fr_departement_2"
"fr_city_00811","LARGNY SUR AUTOMNE","2600","49.2610748419","3.05411123113","cap_contact.fr_departement_2"
"fr_city_00812","LATILLY","2210","49.1538863119","3.31218468893","cap_contact.fr_departement_2"
"fr_city_00813","LAUNOY","2210","49.2629984132","3.4054374314","cap_contact.fr_departement_2"
"fr_city_00814","LAVAL EN LAONNOIS","2860","49.5029905064","3.58758242212","cap_contact.fr_departement_2"
"fr_city_00815","LAVAQUERESSE","2450","49.9465387553","3.7166420191","cap_contact.fr_departement_2"
"fr_city_00816","LAVERSINE","2600","49.3528718857","3.15459651522","cap_contact.fr_departement_2"
"fr_city_00817","LEME","2140","49.843926232","3.7576717994","cap_contact.fr_departement_2"
"fr_city_00818","LEMPIRE","2420","49.9953429453","3.17401503527","cap_contact.fr_departement_2"
"fr_city_00819","LERZY","2260","49.9499258495","3.88135093149","cap_contact.fr_departement_2"
"fr_city_00820","LESCHELLE","2170","49.9605709227","3.77740709683","cap_contact.fr_departement_2"
"fr_city_00821","LESDINS","2100","49.9043632178","3.31462117869","cap_contact.fr_departement_2"
"fr_city_00822","LESGES","2220","49.309828392","3.50034767893","cap_contact.fr_departement_2"
"fr_city_00823","LESQUIELLES ST GERMAIN","2120","49.931687068","3.62808644318","cap_contact.fr_departement_2"
"fr_city_00824","LEUILLY SOUS COUCY","2380","49.4734455044","3.35288205414","cap_contact.fr_departement_2"
"fr_city_00825","LEURY","2880","49.4269529918","3.34130922178","cap_contact.fr_departement_2"
"fr_city_00826","LEUZE","2500","49.8578215993","4.16963845435","cap_contact.fr_departement_2"
"fr_city_00827","LEVERGIES","2420","49.9345380686","3.31185579217","cap_contact.fr_departement_2"
"fr_city_00828","LHUYS","2220","49.2728528048","3.54230635286","cap_contact.fr_departement_2"
"fr_city_00829","LICY CLIGNON","2810","49.102123319","3.26534900839","cap_contact.fr_departement_2"
"fr_city_00830","LIERVAL","2860","49.4874867517","3.62227691789","cap_contact.fr_departement_2"
"fr_city_00831","LIESSE NOTRE DAME","2350","49.6108544067","3.81711786834","cap_contact.fr_departement_2"
"fr_city_00832","LIEZ","2700","49.6923509874","3.30017368966","cap_contact.fr_departement_2"
"fr_city_00833","LIME","2220","49.3234940469","3.55539520178","cap_contact.fr_departement_2"
"fr_city_00834","LISLET","2340","49.6757265054","4.02084295692","cap_contact.fr_departement_2"
"fr_city_00835","LIZY","2320","49.5119505422","3.47941613566","cap_contact.fr_departement_2"
"fr_city_00836","LOGNY LES AUBENTON","2500","49.8330144048","4.2201280927","cap_contact.fr_departement_2"
"fr_city_00837","LONGPONT","2600","49.2843362442","3.22069360555","cap_contact.fr_departement_2"
"fr_city_00838","LES SEPTVALLONS","2160","49.3603355862","3.65567844397","cap_contact.fr_departement_2"
"fr_city_00839","LOR","2190","49.5296668744","4.05453884406","cap_contact.fr_departement_2"
"fr_city_00840","LOUATRE","2600","49.2527947078","3.24153629897","cap_contact.fr_departement_2"
"fr_city_00841","LOUPEIGNE","2130","49.2411071956","3.5251073823","cap_contact.fr_departement_2"
"fr_city_00842","LUCY LE BOCAGE","2400","49.0549612755","3.27616704555","cap_contact.fr_departement_2"
"fr_city_00843","LUGNY","2140","49.782281297","3.8121953982","cap_contact.fr_departement_2"
"fr_city_00844","LUZOIR","2500","49.9271348987","3.96025090337","cap_contact.fr_departement_2"
"fr_city_00845","LY FONTAINE","2440","49.732033107","3.31099377857","cap_contact.fr_departement_2"
"fr_city_00846","MAAST ET VIOLAINE","2220","49.2931740531","3.45694908531","cap_contact.fr_departement_2"
"fr_city_00847","MACHECOURT","2350","49.6516966172","3.83765995783","cap_contact.fr_departement_2"
"fr_city_00848","MACOGNY","2470","49.1590429097","3.21784708642","cap_contact.fr_departement_2"
"fr_city_00849","MACQUIGNY","2120","49.8732387452","3.57070489565","cap_contact.fr_departement_2"
"fr_city_00850","MAGNY LA FOSSE","2420","49.9371259007","3.27654031882","cap_contact.fr_departement_2"
"fr_city_00851","MAISSEMY","2490","49.8929443672","3.1890371838","cap_contact.fr_departement_2"
"fr_city_00852","MAIZY","2160","49.377259904","3.71616526094","cap_contact.fr_departement_2"
"fr_city_00853","LA MALMAISON","2190","49.5165178767","4.00048717912","cap_contact.fr_departement_2"
"fr_city_00854","MALZY","2120","49.921297034","3.73000059946","cap_contact.fr_departement_2"
"fr_city_00855","MANICAMP","2300","49.5650654162","3.17962639988","cap_contact.fr_departement_2"
"fr_city_00856","MARCHAIS","2350","49.5850707567","3.82150148626","cap_contact.fr_departement_2"
"fr_city_00857","DHUYS ET MORIN EN BRIE","2330","48.8935786183","3.49268121283","cap_contact.fr_departement_2"
"fr_city_00858","DHUYS ET MORIN EN BRIE","2540","48.8935786183","3.49268121283","cap_contact.fr_departement_2"
"fr_city_00859","MARCY","2720","49.8535898318","3.41135532201","cap_contact.fr_departement_2"
"fr_city_00860","MARCY SOUS MARLE","2250","49.7457495163","3.73453881149","cap_contact.fr_departement_2"
"fr_city_00861","MAREST DAMPCOURT","2300","49.59443854","3.14627124688","cap_contact.fr_departement_2"
"fr_city_00862","MAREUIL EN DOLE","2130","49.2424552782","3.56114326739","cap_contact.fr_departement_2"
"fr_city_00863","MARFONTAINE","2140","49.8080469097","3.7639268819","cap_contact.fr_departement_2"
"fr_city_00864","MARGIVAL","2880","49.432719029","3.40572977303","cap_contact.fr_departement_2"
"fr_city_00865","MARIGNY EN ORXOIS","2810","49.0526386182","3.22281001734","cap_contact.fr_departement_2"
"fr_city_00866","MARIZY STE GENEVIEVE","2470","49.1825477943","3.19814247608","cap_contact.fr_departement_2"
"fr_city_00867","MARIZY ST MARD","2470","49.1822693098","3.22799114728","cap_contact.fr_departement_2"
"fr_city_00868","MARLE","2250","49.7451393478","3.7652054501","cap_contact.fr_departement_2"
"fr_city_00869","MARLY GOMONT","2120","49.8913737841","3.7849871912","cap_contact.fr_departement_2"
"fr_city_00870","MARTIGNY","2500","49.866582249","4.13443052228","cap_contact.fr_departement_2"
"fr_city_00871","MARTIGNY COURPIERRE","2860","49.4900405005","3.6867077549","cap_contact.fr_departement_2"
"fr_city_00872","MAUREGNY EN HAYE","2820","49.5406230877","3.79762834314","cap_contact.fr_departement_2"
"fr_city_00873","MAYOT","2800","49.7090117255","3.39804766077","cap_contact.fr_departement_2"
"fr_city_00874","MENNESSIS","2700","49.6918385873","3.27543313236","cap_contact.fr_departement_2"
"fr_city_00875","MENNEVILLE","2190","49.4303233528","4.00555747176","cap_contact.fr_departement_2"
"fr_city_00876","MENNEVRET","2630","49.9919704555","3.55884133428","cap_contact.fr_departement_2"
"fr_city_00877","MERCIN ET VAUX","2200","49.3705627456","3.27070140635","cap_contact.fr_departement_2"
"fr_city_00878","MERLIEUX ET FOUQUEROLLES","2000","49.5137172169","3.49932983224","cap_contact.fr_departement_2"
"fr_city_00879","MESBRECOURT RICHECOURT","2270","49.710385665","3.53739733076","cap_contact.fr_departement_2"
"fr_city_00880","MESNIL ST LAURENT","2720","49.8290188644","3.36454012617","cap_contact.fr_departement_2"
"fr_city_00881","MEURIVAL","2160","49.3567698663","3.7590616765","cap_contact.fr_departement_2"
"fr_city_00882","MEZIERES SUR OISE","2240","49.7918999939","3.38740833653","cap_contact.fr_departement_2"
"fr_city_00883","MEZY MOULINS","2650","49.0630074888","3.5122782761","cap_contact.fr_departement_2"
"fr_city_00884","MISSY AUX BOIS","2200","49.3349407256","3.24662970633","cap_contact.fr_departement_2"
"fr_city_00885","MISSY LES PIERREPONT","2350","49.6279354887","3.7841954065","cap_contact.fr_departement_2"
"fr_city_00886","MISSY SUR AISNE","2880","49.3855898418","3.43829672684","cap_contact.fr_departement_2"
"fr_city_00887","MOLAIN","2110","50.03359227","3.52985658168","cap_contact.fr_departement_2"
"fr_city_00888","MOLINCHART","2000","49.5624802928","3.53979641476","cap_contact.fr_departement_2"
"fr_city_00889","MONAMPTEUIL","2000","49.4760084468","3.57360176783","cap_contact.fr_departement_2"
"fr_city_00890","MONCEAU LE NEUF ET FAUCOUZY","2270","49.7845792788","3.63110860935","cap_contact.fr_departement_2"
"fr_city_00891","MONCEAU LES LEUPS","2270","49.6617789272","3.48549133203","cap_contact.fr_departement_2"
"fr_city_00892","MONCEAU LE WAAST","2840","49.6217435488","3.71656668597","cap_contact.fr_departement_2"
"fr_city_00893","MONCEAU SUR OISE","2120","49.9097732744","3.69947432588","cap_contact.fr_departement_2"
"fr_city_00894","MONDREPUIS","2500","49.9637441269","4.05128113518","cap_contact.fr_departement_2"
"fr_city_00895","MONNES","2470","49.1458358775","3.22861820737","cap_contact.fr_departement_2"
"fr_city_00896","MONS EN LAONNOIS","2000","49.5379451828","3.55478457954","cap_contact.fr_departement_2"
"fr_city_00897","MONTAIGU","2820","49.5531328831","3.84439779259","cap_contact.fr_departement_2"
"fr_city_00898","MONTBAVIN","2000","49.5295376592","3.51319789821","cap_contact.fr_departement_2"
"fr_city_00899","MONTBREHAIN","2110","49.9642449609","3.35609147368","cap_contact.fr_departement_2"
"fr_city_00900","MONTCHALONS","2860","49.5131917425","3.72718965805","cap_contact.fr_departement_2"
"fr_city_00901","MONTCORNET","2340","49.6890129328","4.02915061151","cap_contact.fr_departement_2"
"fr_city_00902","MONT D ORIGNY","2390","49.8514997521","3.52673568406","cap_contact.fr_departement_2"
"fr_city_00903","MONTESCOURT LIZEROLLES","2440","49.7360396205","3.26188923395","cap_contact.fr_departement_2"
"fr_city_00904","MONTFAUCON","2540","48.9466694844","3.43192398845","cap_contact.fr_departement_2"
"fr_city_00905","MONTGOBERT","2600","49.289626635","3.17404129063","cap_contact.fr_departement_2"
"fr_city_00906","MONTGRU ST HILAIRE","2210","49.1768851038","3.32722209943","cap_contact.fr_departement_2"
"fr_city_00907","MONTHENAULT","2860","49.4892743465","3.65592404446","cap_contact.fr_departement_2"
"fr_city_00908","MONTHIERS","2400","49.1085987235","3.29437776654","cap_contact.fr_departement_2"
"fr_city_00909","MONTHUREL","2330","49.0275310805","3.55187396803","cap_contact.fr_departement_2"
"fr_city_00910","MONTIGNY EN ARROUAISE","2110","49.9120067618","3.48306674241","cap_contact.fr_departement_2"
"fr_city_00911","MONTIGNY L ALLIER","2810","49.1221418457","3.10744372815","cap_contact.fr_departement_2"
"fr_city_00912","MONTIGNY LE FRANC","2250","49.6874788196","3.9183982393","cap_contact.fr_departement_2"
"fr_city_00913","MONTIGNY LENGRAIN","2290","49.3726900463","3.09924630011","cap_contact.fr_departement_2"
"fr_city_00914","MONTIGNY LES CONDE","2330","48.9830055534","3.56635546224","cap_contact.fr_departement_2"
"fr_city_00915","MONTIGNY SOUS MARLE","2250","49.7411090858","3.80397947574","cap_contact.fr_departement_2"
"fr_city_00916","MONTIGNY SUR CRECY","2270","49.7149248587","3.58368023998","cap_contact.fr_departement_2"
"fr_city_00917","MONTLEVON","2330","48.9627005485","3.51543798042","cap_contact.fr_departement_2"
"fr_city_00918","MONTLOUE","2340","49.6682396007","4.06275825607","cap_contact.fr_departement_2"
"fr_city_00919","MONT NOTRE DAME","2220","49.2921467742","3.5821661713","cap_contact.fr_departement_2"
"fr_city_00920","MONTREUIL AUX LIONS","2310","49.0264607134","3.19454438663","cap_contact.fr_departement_2"
"fr_city_00921","MONT ST JEAN","2360","49.7932196838","4.21125667983","cap_contact.fr_departement_2"
"fr_city_00922","MONT ST MARTIN","2220","49.2747967442","3.64275042996","cap_contact.fr_departement_2"
"fr_city_00923","MONT ST PERE","2400","49.0816980947","3.47715449247","cap_contact.fr_departement_2"
"fr_city_00924","MORCOURT","2100","49.8759595448","3.33400206098","cap_contact.fr_departement_2"
"fr_city_00925","MORGNY EN THIERACHE","2360","49.7544947391","4.07631392389","cap_contact.fr_departement_2"
"fr_city_00926","MORSAIN","2290","49.4616807631","3.19122405616","cap_contact.fr_departement_2"
"fr_city_00927","MORTEFONTAINE","2600","49.3362768244","3.08053479514","cap_contact.fr_departement_2"
"fr_city_00928","MORTIERS","2270","49.6934508264","3.66411841593","cap_contact.fr_departement_2"
"fr_city_00929","MOULINS","2160","49.4198471298","3.67884923026","cap_contact.fr_departement_2"
"fr_city_00930","MOUSSY VERNEUIL","2160","49.4126815323","3.63718132987","cap_contact.fr_departement_2"
"fr_city_00931","MOY DE L AISNE","2610","49.750274961","3.35100553228","cap_contact.fr_departement_2"
"fr_city_00932","MURET ET CROUTTES","2210","49.2781417953","3.43464742094","cap_contact.fr_departement_2"
"fr_city_00933","MUSCOURT","2160","49.3595795698","3.74350239233","cap_contact.fr_departement_2"
"fr_city_00934","NAMPCELLES LA COUR","2140","49.7765756098","4.00209910519","cap_contact.fr_departement_2"
"fr_city_00935","NAMPTEUIL SOUS MURET","2200","49.3051403969","3.43398003516","cap_contact.fr_departement_2"
"fr_city_00936","NANTEUIL LA FOSSE","2880","49.4338010814","3.44800041437","cap_contact.fr_departement_2"
"fr_city_00937","NANTEUIL NOTRE DAME","2210","49.1907421685","3.41207163018","cap_contact.fr_departement_2"
"fr_city_00938","NAUROY","2420","49.9508154668","3.25861980976","cap_contact.fr_departement_2"
"fr_city_00939","NESLES LA MONTAGNE","2400","48.9997837313","3.44587892818","cap_contact.fr_departement_2"
"fr_city_00940","NEUFCHATEL SUR AISNE","2190","49.4367296826","4.0236471269","cap_contact.fr_departement_2"
"fr_city_00941","NEUFLIEUX","2300","49.6163788231","3.15996849471","cap_contact.fr_departement_2"
"fr_city_00942","NEUILLY ST FRONT","2470","49.1626366671","3.26436269893","cap_contact.fr_departement_2"
"fr_city_00943","NEUVE MAISON","2500","49.9286429779","4.04086730255","cap_contact.fr_departement_2"
"fr_city_00944","LA NEUVILLE BOSMONT","2250","49.7145039747","3.83367274994","cap_contact.fr_departement_2"
"fr_city_00945","LA NEUVILLE EN BEINE","2300","49.6762298475","3.15600362361","cap_contact.fr_departement_2"
"fr_city_00946","LA NEUVILLE HOUSSET","2250","49.7881379377","3.73171627307","cap_contact.fr_departement_2"
"fr_city_00947","LA NEUVILLE LES DORENGT","2450","49.983064353","3.68565926181","cap_contact.fr_departement_2"
"fr_city_00948","NEUVILLE ST AMAND","2100","49.8206477091","3.33360991741","cap_contact.fr_departement_2"
"fr_city_00949","NEUVILLE SUR AILETTE","2860","49.4695141414","3.69819946444","cap_contact.fr_departement_2"
"fr_city_00950","NEUVILLE SUR MARGIVAL","2880","49.4548729773","3.3986658815","cap_contact.fr_departement_2"
"fr_city_00951","NEUVILLETTE","2390","49.8554002239","3.46831298648","cap_contact.fr_departement_2"
"fr_city_00952","NIZY LE COMTE","2150","49.574361853","4.03064818206","cap_contact.fr_departement_2"
"fr_city_00953","NOGENTEL","2400","49.0140758623","3.40340404208","cap_contact.fr_departement_2"
"fr_city_00954","NOGENT L ARTAUD","2310","48.9426222247","3.332802902","cap_contact.fr_departement_2"
"fr_city_00955","NOIRCOURT","2340","49.6691648747","4.09433809595","cap_contact.fr_departement_2"
"fr_city_00956","NOROY SUR OURCQ","2600","49.2041824443","3.20698565652","cap_contact.fr_departement_2"
"fr_city_00957","LE NOUVION EN THIERACHE","2170","50.0086867152","3.80929288198","cap_contact.fr_departement_2"
"fr_city_00958","NOUVION ET CATILLON","2270","49.7075667391","3.49359729343","cap_contact.fr_departement_2"
"fr_city_00959","NOUVION LE COMTE","2800","49.7079830783","3.46084868911","cap_contact.fr_departement_2"
"fr_city_00960","NOUVION LE VINEUX","2860","49.5092763308","3.605351266","cap_contact.fr_departement_2"
"fr_city_00961","NOUVRON VINGRE","2290","49.4333492","3.18803179842","cap_contact.fr_departement_2"
"fr_city_00962","NOYALES","2120","49.9082559491","3.53848565514","cap_contact.fr_departement_2"
"fr_city_00963","NOYANT ET ACONIN","2200","49.3319620657","3.33416303776","cap_contact.fr_departement_2"
"fr_city_00964","OEUILLY","2160","49.3928856944","3.68222741301","cap_contact.fr_departement_2"
"fr_city_00965","OGNES","2300","49.6136864694","3.19142372904","cap_contact.fr_departement_2"
"fr_city_00966","OHIS","2500","49.9184307239","4.01170912127","cap_contact.fr_departement_2"
"fr_city_00967","OIGNY EN VALOIS","2600","49.2137237953","3.1302728623","cap_contact.fr_departement_2"
"fr_city_00968","OISY","2450","50.0229089259","3.65273893683","cap_contact.fr_departement_2"
"fr_city_00969","OLLEZY","2480","49.729996536","3.14607261695","cap_contact.fr_departement_2"
"fr_city_00970","OMISSY","2100","49.8804267246","3.29788036707","cap_contact.fr_departement_2"
"fr_city_00971","ORAINVILLE","2190","49.3759679828","4.01565856496","cap_contact.fr_departement_2"
"fr_city_00972","ORGEVAL","2860","49.5041140764","3.70337016497","cap_contact.fr_departement_2"
"fr_city_00973","ORIGNY EN THIERACHE","2550","49.8861904623","4.01101149757","cap_contact.fr_departement_2"
"fr_city_00974","ORIGNY STE BENOITE","2390","49.8268502674","3.52909324665","cap_contact.fr_departement_2"
"fr_city_00975","OSLY COURTIL","2290","49.3995301311","3.23736511582","cap_contact.fr_departement_2"
"fr_city_00976","OSTEL","2370","49.4299692983","3.56538871192","cap_contact.fr_departement_2"
"fr_city_00977","OULCHES LA VALLEE FOULON","2160","49.4311311984","3.73966290896","cap_contact.fr_departement_2"
"fr_city_00978","OULCHY LA VILLE","2210","49.2098503819","3.34062520679","cap_contact.fr_departement_2"
"fr_city_00979","OULCHY LE CHATEAU","2210","49.2070701806","3.38202413773","cap_contact.fr_departement_2"
"fr_city_00980","PAARS","2220","49.3302779346","3.60267922049","cap_contact.fr_departement_2"
"fr_city_00981","PAISSY","2160","49.4263466952","3.7014989195","cap_contact.fr_departement_2"
"fr_city_00982","PANCY COURTECON","2860","49.4606885919","3.64987795196","cap_contact.fr_departement_2"
"fr_city_00983","PAPLEUX","2260","50.0169167744","3.88023781289","cap_contact.fr_departement_2"
"fr_city_00984","PARCY ET TIGNY","2210","49.2703704352","3.32906709704","cap_contact.fr_departement_2"
"fr_city_00985","PARFONDEVAL","2360","49.7443573688","4.16145285338","cap_contact.fr_departement_2"
"fr_city_00986","PARFONDRU","2840","49.5385213412","3.70351915315","cap_contact.fr_departement_2"
"fr_city_00987","PARGNAN","2160","49.3942391486","3.70308940891","cap_contact.fr_departement_2"
"fr_city_00988","PARGNY FILAIN","2000","49.4629055692","3.53929108659","cap_contact.fr_departement_2"
"fr_city_00989","PARGNY LA DHUYS","2330","48.9545509576","3.56357370593","cap_contact.fr_departement_2"
"fr_city_00990","PARGNY LES BOIS","2270","49.7323072713","3.61788330529","cap_contact.fr_departement_2"
"fr_city_00991","PARPEVILLE","2240","49.7943758027","3.56422835389","cap_contact.fr_departement_2"
"fr_city_00992","PASLY","2200","49.4022800131","3.29799527999","cap_contact.fr_departement_2"
"fr_city_00993","PASSY EN VALOIS","2470","49.1621618332","3.18418881622","cap_contact.fr_departement_2"
"fr_city_00994","PASSY SUR MARNE","2850","49.0663377762","3.57438808256","cap_contact.fr_departement_2"
"fr_city_00995","PAVANT","2310","48.9528924605","3.28390382889","cap_contact.fr_departement_2"
"fr_city_00996","PERNANT","2200","49.3756522114","3.23031459047","cap_contact.fr_departement_2"
"fr_city_00997","PIERREMANDE","2300","49.566550412","3.25836777343","cap_contact.fr_departement_2"
"fr_city_00998","PIERREPONT","2350","49.6482784601","3.78777546723","cap_contact.fr_departement_2"
"fr_city_00999","PIGNICOURT","2190","49.4091910952","4.0300596148","cap_contact.fr_departement_2"
"fr_city_01000","PINON","2320","49.488480349","3.46156583024","cap_contact.fr_departement_2"
